<?xml version="1.0" encoding="UTF-8"?>
<kml xmlns="http://www.opengis.net/kml/2.2">
<Document>
<Style id="red">
<IconStyle>
<Icon><href>http://maps.google.com/mapfiles/ms/icons/red-dot.png</href></Icon>
</IconStyle>
</Style>
<Style id="yellow"><IconStyle><Icon><href>http://maps.google.com/mapfiles/ms/icons/yellow-dot.png</href></Icon></IconStyle></Style><Style id="green"><IconStyle><Icon><href>http://maps.google.com/mapfiles/ms/icons/green-dot.png</href></Icon></IconStyle></Style>
<Folder>
<name>dataExamples</name>
<Folder>
<name>WigleWifi_20171203085618.csv</name>
<Placemark>
<name>Ariel_University</name>
<description>Name: <b>Ariel_University</b><br/>Timestamp (UTC): <b>1512284067000</b><br/>Date: <b>2017-12-03 06:54:27 </b><br/>BSSID: <b>1c:b9:c4:14:33:c8</b><br/>Capabilities: <b>[ESS]</b><br/>AccuracyMeters: <b>3</b><br/></description>
<styleUrl>#green</styleUrl>
<TimeStamp><when>2017-12-03T06:54:27Z</when></TimeStamp>
<Point>
<coordinates>35.20871899,32.10282362,0 </coordinates>
</Point>
</Placemark>
<Placemark>
<name>Ariel_University</name>
<description>Name: <b>Ariel_University</b><br/>Timestamp (UTC): <b>1512284076000</b><br/>Date: <b>2017-12-03 06:54:36 </b><br/>BSSID: <b>34:8f:27:20:8c:18</b><br/>Capabilities: <b>[ESS]</b><br/>AccuracyMeters: <b>4</b><br/></description>
<styleUrl>#green</styleUrl>
<TimeStamp><when>2017-12-03T06:54:36Z</when></TimeStamp>
<Point>
<coordinates>35.20894955,32.1022576,0 </coordinates>
</Point>
</Placemark>
<Placemark>
<name>yosh</name>
<description>Name: <b>yosh</b><br/>Timestamp (UTC): <b>1512284016000</b><br/>Date: <b>2017-12-03 06:53:36 </b><br/>BSSID: <b>00:11:6b:11:7e:0c</b><br/>Capabilities: <b>[ESS]</b><br/>AccuracyMeters: <b>3</b><br/></description>
<styleUrl>#green</styleUrl>
<TimeStamp><when>2017-12-03T06:53:36Z</when></TimeStamp>
<Point>
<coordinates>35.21044203,32.10490203,0 </coordinates>
</Point>
</Placemark>
<Placemark>
<name>outsense</name>
<description>Name: <b>outsense</b><br/>Timestamp (UTC): <b>1512284025000</b><br/>Date: <b>2017-12-03 06:53:45 </b><br/>BSSID: <b>c2:6c:ac:a0:7b:4d</b><br/>Capabilities: <b>[WPA2-PSK-CCMP-preauth][ESS]</b><br/>AccuracyMeters: <b>3</b><br/></description>
<styleUrl>#red</styleUrl>
<TimeStamp><when>2017-12-03T06:53:45Z</when></TimeStamp>
<Point>
<coordinates>35.20990936,32.10466627,0 </coordinates>
</Point>
</Placemark>
<Placemark>
<name>incentive2</name>
<description>Name: <b>incentive2</b><br/>Timestamp (UTC): <b>1512284025000</b><br/>Date: <b>2017-12-03 06:53:45 </b><br/>BSSID: <b>a2:6c:ac:a0:60:4d</b><br/>Capabilities: <b>[WPA2-PSK-CCMP-preauth][ESS]</b><br/>AccuracyMeters: <b>3</b><br/></description>
<styleUrl>#red</styleUrl>
<TimeStamp><when>2017-12-03T06:53:45Z</when></TimeStamp>
<Point>
<coordinates>35.20990936,32.10466627,0 </coordinates>
</Point>
</Placemark>
<Placemark>
<name>Ariel_University</name>
<description>Name: <b>Ariel_University</b><br/>Timestamp (UTC): <b>1512284019000</b><br/>Date: <b>2017-12-03 06:53:39 </b><br/>BSSID: <b>1c:b9:c4:15:42:68</b><br/>Capabilities: <b>[ESS]</b><br/>AccuracyMeters: <b>3</b><br/></description>
<styleUrl>#green</styleUrl>
<TimeStamp><when>2017-12-03T06:53:39Z</when></TimeStamp>
<Point>
<coordinates>35.21025994,32.1048406,0 </coordinates>
</Point>
</Placemark>
<Placemark>
<name>Ariel_University</name>
<description>Name: <b>Ariel_University</b><br/>Timestamp (UTC): <b>1512284049000</b><br/>Date: <b>2017-12-03 06:54:09 </b><br/>BSSID: <b>1c:b9:c4:16:d2:88</b><br/>Capabilities: <b>[ESS]</b><br/>AccuracyMeters: <b>3</b><br/></description>
<styleUrl>#green</styleUrl>
<TimeStamp><when>2017-12-03T06:54:09Z</when></TimeStamp>
<Point>
<coordinates>35.20883622,32.10376365,0 </coordinates>
</Point>
</Placemark>
<Placemark>
<name>KCG-ADSL</name>
<description>Name: <b>KCG-ADSL</b><br/>Timestamp (UTC): <b>1512284094000</b><br/>Date: <b>2017-12-03 06:54:54 </b><br/>BSSID: <b>00:1d:aa:81:d8:3c</b><br/>Capabilities: <b>[WPA2-PSK-CCMP][WPS][ESS]</b><br/>AccuracyMeters: <b>4</b><br/></description>
<styleUrl>#red</styleUrl>
<TimeStamp><when>2017-12-03T06:54:54Z</when></TimeStamp>
<Point>
<coordinates>35.21003281,32.10226153,0 </coordinates>
</Point>
</Placemark>
<Placemark>
<name>Ariel_University</name>
<description>Name: <b>Ariel_University</b><br/>Timestamp (UTC): <b>1512283988000</b><br/>Date: <b>2017-12-03 06:53:08 </b><br/>BSSID: <b>1c:b9:c4:15:44:58</b><br/>Capabilities: <b>[ESS]</b><br/>AccuracyMeters: <b>3</b><br/></description>
<styleUrl>#green</styleUrl>
<TimeStamp><when>2017-12-03T06:53:08Z</when></TimeStamp>
<Point>
<coordinates>35.21134308,32.10487307,0 </coordinates>
</Point>
</Placemark>
<Placemark>
<name>Ariel_University</name>
<description>Name: <b>Ariel_University</b><br/>Timestamp (UTC): <b>1512284111000</b><br/>Date: <b>2017-12-03 06:55:11 </b><br/>BSSID: <b>1c:b9:c4:12:af:78</b><br/>Capabilities: <b>[ESS]</b><br/>AccuracyMeters: <b>4</b><br/></description>
<styleUrl>#green</styleUrl>
<TimeStamp><when>2017-12-03T06:55:11Z</when></TimeStamp>
<Point>
<coordinates>35.20983303,32.10290524,0 </coordinates>
</Point>
</Placemark>
<Placemark>
<name>Ariel_University</name>
<description>Name: <b>Ariel_University</b><br/>Timestamp (UTC): <b>1512284168000</b><br/>Date: <b>2017-12-03 06:56:08 </b><br/>BSSID: <b>1c:b9:c4:16:2b:e8</b><br/>Capabilities: <b>[ESS]</b><br/>AccuracyMeters: <b>3</b><br/></description>
<styleUrl>#green</styleUrl>
<TimeStamp><when>2017-12-03T06:56:08Z</when></TimeStamp>
<Point>
<coordinates>35.21135337,32.10488619,0 </coordinates>
</Point>
</Placemark>
<Placemark>
<name>Ariel_University</name>
<description>Name: <b>Ariel_University</b><br/>Timestamp (UTC): <b>1512284040000</b><br/>Date: <b>2017-12-03 06:54 </b><br/>BSSID: <b>ec:8c:a2:26:d3:68</b><br/>Capabilities: <b>[ESS]</b><br/>AccuracyMeters: <b>3</b><br/></description>
<styleUrl>#green</styleUrl>
<TimeStamp><when>2017-12-03T06:54Z</when></TimeStamp>
<Point>
<coordinates>35.20917533,32.10419361,0 </coordinates>
</Point>
</Placemark>
<Placemark>
<name>lab_6.1.3</name>
<description>Name: <b>lab_6.1.3</b><br/>Timestamp (UTC): <b>1512284117000</b><br/>Date: <b>2017-12-03 06:55:17 </b><br/>BSSID: <b>c4:12:f5:f6:a0:18</b><br/>Capabilities: <b>[WPA2-PSK-CCMP][ESS]</b><br/>AccuracyMeters: <b>3</b><br/></description>
<styleUrl>#red</styleUrl>
<TimeStamp><when>2017-12-03T06:55:17Z</when></TimeStamp>
<Point>
<coordinates>35.20977295,32.10314139,0 </coordinates>
</Point>
</Placemark>
<Placemark>
<name>Ariel_University</name>
<description>Name: <b>Ariel_University</b><br/>Timestamp (UTC): <b>1512284133000</b><br/>Date: <b>2017-12-03 06:55:33 </b><br/>BSSID: <b>1c:b9:c4:12:af:78</b><br/>Capabilities: <b>[ESS]</b><br/>AccuracyMeters: <b>3</b><br/></description>
<styleUrl>#green</styleUrl>
<TimeStamp><when>2017-12-03T06:55:33Z</when></TimeStamp>
<Point>
<coordinates>35.21040928,32.10392655,0 </coordinates>
</Point>
</Placemark>
<Placemark>
<name>Bezeq Free</name>
<description>Name: <b>Bezeq Free</b><br/>Timestamp (UTC): <b>1512284091000</b><br/>Date: <b>2017-12-03 06:54:51 </b><br/>BSSID: <b>62:ab:1b:60:b4:cb</b><br/>Capabilities: <b>[WPA2-PSK-CCMP][ESS]</b><br/>AccuracyMeters: <b>3</b><br/></description>
<styleUrl>#red</styleUrl>
<TimeStamp><when>2017-12-03T06:54:51Z</when></TimeStamp>
<Point>
<coordinates>35.20998301,32.10212708,0 </coordinates>
</Point>
</Placemark>
<Placemark>
<name>Ariel_University</name>
<description>Name: <b>Ariel_University</b><br/>Timestamp (UTC): <b>1512284125000</b><br/>Date: <b>2017-12-03 06:55:25 </b><br/>BSSID: <b>1c:b9:c4:15:fd:48</b><br/>Capabilities: <b>[ESS]</b><br/>AccuracyMeters: <b>3</b><br/></description>
<styleUrl>#green</styleUrl>
<TimeStamp><when>2017-12-03T06:55:25Z</when></TimeStamp>
<Point>
<coordinates>35.20992695,32.10357832,0 </coordinates>
</Point>
</Placemark>
<Placemark>
<name>Guest</name>
<description>Name: <b>Guest</b><br/>Timestamp (UTC): <b>1512284022000</b><br/>Date: <b>2017-12-03 06:53:42 </b><br/>BSSID: <b>a2:6c:ac:a0:7b:4d</b><br/>Capabilities: <b>[WPA2-PSK-CCMP-preauth][ESS]</b><br/>AccuracyMeters: <b>3</b><br/></description>
<styleUrl>#red</styleUrl>
<TimeStamp><when>2017-12-03T06:53:42Z</when></TimeStamp>
<Point>
<coordinates>35.21007474,32.10475343,0 </coordinates>
</Point>
</Placemark>
<Placemark>
<name>Ariel_University</name>
<description>Name: <b>Ariel_University</b><br/>Timestamp (UTC): <b>1512284055000</b><br/>Date: <b>2017-12-03 06:54:15 </b><br/>BSSID: <b>1c:b9:c4:12:7c:c8</b><br/>Capabilities: <b>[ESS]</b><br/>AccuracyMeters: <b>3</b><br/></description>
<styleUrl>#green</styleUrl>
<TimeStamp><when>2017-12-03T06:54:15Z</when></TimeStamp>
<Point>
<coordinates>35.20875946,32.10346795,0 </coordinates>
</Point>
</Placemark>
<Placemark>
<name>yosh</name>
<description>Name: <b>yosh</b><br/>Timestamp (UTC): <b>1512284088000</b><br/>Date: <b>2017-12-03 06:54:48 </b><br/>BSSID: <b>00:11:6b:11:02:b7</b><br/>Capabilities: <b>[ESS]</b><br/>AccuracyMeters: <b>4</b><br/></description>
<styleUrl>#green</styleUrl>
<TimeStamp><when>2017-12-03T06:54:48Z</when></TimeStamp>
<Point>
<coordinates>35.2098381,32.10199722,0 </coordinates>
</Point>
</Placemark>
<Placemark>
<name>Bezeq Free</name>
<description>Name: <b>Bezeq Free</b><br/>Timestamp (UTC): <b>1512284070000</b><br/>Date: <b>2017-12-03 06:54:30 </b><br/>BSSID: <b>62:ab:1b:60:b4:cb</b><br/>Capabilities: <b>[WPA2-PSK-CCMP][ESS]</b><br/>AccuracyMeters: <b>4</b><br/></description>
<styleUrl>#red</styleUrl>
<TimeStamp><when>2017-12-03T06:54:30Z</when></TimeStamp>
<Point>
<coordinates>35.20876629,32.10263124,0 </coordinates>
</Point>
</Placemark>
<Placemark>
<name>Ariel_University</name>
<description>Name: <b>Ariel_University</b><br/>Timestamp (UTC): <b>1512284136000</b><br/>Date: <b>2017-12-03 06:55:36 </b><br/>BSSID: <b>24:79:2a:2c:5b:d8</b><br/>Capabilities: <b>[ESS]</b><br/>AccuracyMeters: <b>3</b><br/></description>
<styleUrl>#green</styleUrl>
<TimeStamp><when>2017-12-03T06:55:36Z</when></TimeStamp>
<Point>
<coordinates>35.21064312,32.10403138,0 </coordinates>
</Point>
</Placemark>
<Placemark>
<name>Ariel_University</name>
<description>Name: <b>Ariel_University</b><br/>Timestamp (UTC): <b>1512284061000</b><br/>Date: <b>2017-12-03 06:54:21 </b><br/>BSSID: <b>ec:8c:a2:26:b0:e8</b><br/>Capabilities: <b>[ESS]</b><br/>AccuracyMeters: <b>4</b><br/></description>
<styleUrl>#green</styleUrl>
<TimeStamp><when>2017-12-03T06:54:21Z</when></TimeStamp>
<Point>
<coordinates>35.20873143,32.10318952,0 </coordinates>
</Point>
</Placemark>
<Placemark>
<name>HelpDesk</name>
<description>Name: <b>HelpDesk</b><br/>Timestamp (UTC): <b>1512284088000</b><br/>Date: <b>2017-12-03 06:54:48 </b><br/>BSSID: <b>f8:d1:11:77:77:c6</b><br/>Capabilities: <b>[WPA-PSK-CCMP+TKIP][WPA2-PSK-CCMP+TKIP][WPS][ESS]</b><br/>AccuracyMeters: <b>4</b><br/></description>
<styleUrl>#red</styleUrl>
<TimeStamp><when>2017-12-03T06:54:48Z</when></TimeStamp>
<Point>
<coordinates>35.2098381,32.10199722,0 </coordinates>
</Point>
</Placemark>
<Placemark>
<name>artsim</name>
<description>Name: <b>artsim</b><br/>Timestamp (UTC): <b>1512284034000</b><br/>Date: <b>2017-12-03 06:53:54 </b><br/>BSSID: <b>a2:6c:ac:a0:18:29</b><br/>Capabilities: <b>[WPA2-PSK-CCMP-preauth][ESS]</b><br/>AccuracyMeters: <b>3</b><br/></description>
<styleUrl>#red</styleUrl>
<TimeStamp><when>2017-12-03T06:53:54Z</when></TimeStamp>
<Point>
<coordinates>35.20946023,32.10440239,0 </coordinates>
</Point>
</Placemark>
<Placemark>
<name>Ariel_University</name>
<description>Name: <b>Ariel_University</b><br/>Timestamp (UTC): <b>1512284019000</b><br/>Date: <b>2017-12-03 06:53:39 </b><br/>BSSID: <b>1c:b9:c4:16:2b:e8</b><br/>Capabilities: <b>[ESS]</b><br/>AccuracyMeters: <b>3</b><br/></description>
<styleUrl>#green</styleUrl>
<TimeStamp><when>2017-12-03T06:53:39Z</when></TimeStamp>
<Point>
<coordinates>35.21025994,32.1048406,0 </coordinates>
</Point>
</Placemark>
<Placemark>
<name>Ariel_University</name>
<description>Name: <b>Ariel_University</b><br/>Timestamp (UTC): <b>1512284067000</b><br/>Date: <b>2017-12-03 06:54:27 </b><br/>BSSID: <b>1c:b9:c4:16:11:ac</b><br/>Capabilities: <b>[ESS]</b><br/>AccuracyMeters: <b>3</b><br/></description>
<styleUrl>#green</styleUrl>
<TimeStamp><when>2017-12-03T06:54:27Z</when></TimeStamp>
<Point>
<coordinates>35.20871899,32.10282362,0 </coordinates>
</Point>
</Placemark>
<Placemark>
<name>Ariel_University</name>
<description>Name: <b>Ariel_University</b><br/>Timestamp (UTC): <b>1512284058000</b><br/>Date: <b>2017-12-03 06:54:18 </b><br/>BSSID: <b>ec:8c:a2:08:94:18</b><br/>Capabilities: <b>[ESS]</b><br/>AccuracyMeters: <b>4</b><br/></description>
<styleUrl>#green</styleUrl>
<TimeStamp><when>2017-12-03T06:54:18Z</when></TimeStamp>
<Point>
<coordinates>35.20874462,32.10333565,0 </coordinates>
</Point>
</Placemark>
<Placemark>
<name>Ariel_University</name>
<description>Name: <b>Ariel_University</b><br/>Timestamp (UTC): <b>1512284076000</b><br/>Date: <b>2017-12-03 06:54:36 </b><br/>BSSID: <b>ec:8c:a2:08:94:18</b><br/>Capabilities: <b>[ESS]</b><br/>AccuracyMeters: <b>4</b><br/></description>
<styleUrl>#green</styleUrl>
<TimeStamp><when>2017-12-03T06:54:36Z</when></TimeStamp>
<Point>
<coordinates>35.20894955,32.1022576,0 </coordinates>
</Point>
</Placemark>
<Placemark>
<name>KCG-ADSL</name>
<description>Name: <b>KCG-ADSL</b><br/>Timestamp (UTC): <b>1512284133000</b><br/>Date: <b>2017-12-03 06:55:33 </b><br/>BSSID: <b>00:1d:aa:81:d8:3c</b><br/>Capabilities: <b>[WPA2-PSK-CCMP][WPS][ESS]</b><br/>AccuracyMeters: <b>3</b><br/></description>
<styleUrl>#red</styleUrl>
<TimeStamp><when>2017-12-03T06:55:33Z</when></TimeStamp>
<Point>
<coordinates>35.21040928,32.10392655,0 </coordinates>
</Point>
</Placemark>
<Placemark>
<name>Ariel_University</name>
<description>Name: <b>Ariel_University</b><br/>Timestamp (UTC): <b>1512284067000</b><br/>Date: <b>2017-12-03 06:54:27 </b><br/>BSSID: <b>1c:b9:c4:16:f4:7c</b><br/>Capabilities: <b>[ESS]</b><br/>AccuracyMeters: <b>3</b><br/></description>
<styleUrl>#green</styleUrl>
<TimeStamp><when>2017-12-03T06:54:27Z</when></TimeStamp>
<Point>
<coordinates>35.20871899,32.10282362,0 </coordinates>
</Point>
</Placemark>
<Placemark>
<name>Afikim_Wifi</name>
<description>Name: <b>Afikim_Wifi</b><br/>Timestamp (UTC): <b>1512284022000</b><br/>Date: <b>2017-12-03 06:53:42 </b><br/>BSSID: <b>00:1a:dd:f5:df:c5</b><br/>Capabilities: <b>[ESS]</b><br/>AccuracyMeters: <b>3</b><br/></description>
<styleUrl>#green</styleUrl>
<TimeStamp><when>2017-12-03T06:53:42Z</when></TimeStamp>
<Point>
<coordinates>35.21007474,32.10475343,0 </coordinates>
</Point>
</Placemark>
<Placemark>
<name>Ariel_University</name>
<description>Name: <b>Ariel_University</b><br/>Timestamp (UTC): <b>1512284034000</b><br/>Date: <b>2017-12-03 06:53:54 </b><br/>BSSID: <b>1c:b9:c4:16:cc:d8</b><br/>Capabilities: <b>[ESS]</b><br/>AccuracyMeters: <b>3</b><br/></description>
<styleUrl>#green</styleUrl>
<TimeStamp><when>2017-12-03T06:53:54Z</when></TimeStamp>
<Point>
<coordinates>35.20946023,32.10440239,0 </coordinates>
</Point>
</Placemark>
<Placemark>
<name>HelpDesk</name>
<description>Name: <b>HelpDesk</b><br/>Timestamp (UTC): <b>1512284067000</b><br/>Date: <b>2017-12-03 06:54:27 </b><br/>BSSID: <b>f8:d1:11:77:77:c6</b><br/>Capabilities: <b>[WPA-PSK-CCMP+TKIP][WPA2-PSK-CCMP+TKIP][WPS][ESS]</b><br/>AccuracyMeters: <b>3</b><br/></description>
<styleUrl>#red</styleUrl>
<TimeStamp><when>2017-12-03T06:54:27Z</when></TimeStamp>
<Point>
<coordinates>35.20871899,32.10282362,0 </coordinates>
</Point>
</Placemark>
<Placemark>
<name>Ariel_University</name>
<description>Name: <b>Ariel_University</b><br/>Timestamp (UTC): <b>1512284067000</b><br/>Date: <b>2017-12-03 06:54:27 </b><br/>BSSID: <b>1c:b9:c4:14:2f:68</b><br/>Capabilities: <b>[ESS]</b><br/>AccuracyMeters: <b>3</b><br/></description>
<styleUrl>#green</styleUrl>
<TimeStamp><when>2017-12-03T06:54:27Z</when></TimeStamp>
<Point>
<coordinates>35.20871899,32.10282362,0 </coordinates>
</Point>
</Placemark>
<Placemark>
<name>Ariel_University</name>
<description>Name: <b>Ariel_University</b><br/>Timestamp (UTC): <b>1512284088000</b><br/>Date: <b>2017-12-03 06:54:48 </b><br/>BSSID: <b>1c:b9:c4:16:28:f8</b><br/>Capabilities: <b>[ESS]</b><br/>AccuracyMeters: <b>4</b><br/></description>
<styleUrl>#green</styleUrl>
<TimeStamp><when>2017-12-03T06:54:48Z</when></TimeStamp>
<Point>
<coordinates>35.2098381,32.10199722,0 </coordinates>
</Point>
</Placemark>
<Placemark>
<name>Ariel_University</name>
<description>Name: <b>Ariel_University</b><br/>Timestamp (UTC): <b>1512284168000</b><br/>Date: <b>2017-12-03 06:56:08 </b><br/>BSSID: <b>1c:b9:c4:14:2b:c8</b><br/>Capabilities: <b>[ESS]</b><br/>AccuracyMeters: <b>3</b><br/></description>
<styleUrl>#green</styleUrl>
<TimeStamp><when>2017-12-03T06:56:08Z</when></TimeStamp>
<Point>
<coordinates>35.21135337,32.10488619,0 </coordinates>
</Point>
</Placemark>
<Placemark>
<name>sinusafe</name>
<description>Name: <b>sinusafe</b><br/>Timestamp (UTC): <b>1512284043000</b><br/>Date: <b>2017-12-03 06:54:03 </b><br/>BSSID: <b>b2:6c:ac:a0:3d:eb</b><br/>Capabilities: <b>[WPA2-PSK-CCMP-preauth][ESS]</b><br/>AccuracyMeters: <b>3</b><br/></description>
<styleUrl>#red</styleUrl>
<TimeStamp><when>2017-12-03T06:54:03Z</when></TimeStamp>
<Point>
<coordinates>35.20902709,32.10406321,0 </coordinates>
</Point>
</Placemark>
<Placemark>
<name>Ariel_University</name>
<description>Name: <b>Ariel_University</b><br/>Timestamp (UTC): <b>1512284055000</b><br/>Date: <b>2017-12-03 06:54:15 </b><br/>BSSID: <b>ec:8c:a2:08:94:18</b><br/>Capabilities: <b>[ESS]</b><br/>AccuracyMeters: <b>3</b><br/></description>
<styleUrl>#green</styleUrl>
<TimeStamp><when>2017-12-03T06:54:15Z</when></TimeStamp>
<Point>
<coordinates>35.20875946,32.10346795,0 </coordinates>
</Point>
</Placemark>
<Placemark>
<name>CliClap</name>
<description>Name: <b>CliClap</b><br/>Timestamp (UTC): <b>1512284055000</b><br/>Date: <b>2017-12-03 06:54:15 </b><br/>BSSID: <b>90:6c:ac:9f:f1:c5</b><br/>Capabilities: <b>[WPA2-PSK-CCMP-preauth][ESS]</b><br/>AccuracyMeters: <b>3</b><br/></description>
<styleUrl>#red</styleUrl>
<TimeStamp><when>2017-12-03T06:54:15Z</when></TimeStamp>
<Point>
<coordinates>35.20875946,32.10346795,0 </coordinates>
</Point>
</Placemark>
<Placemark>
<name>Ariel_University</name>
<description>Name: <b>Ariel_University</b><br/>Timestamp (UTC): <b>1512284151000</b><br/>Date: <b>2017-12-03 06:55:51 </b><br/>BSSID: <b>1c:b9:c4:15:44:88</b><br/>Capabilities: <b>[ESS]</b><br/>AccuracyMeters: <b>4</b><br/></description>
<styleUrl>#green</styleUrl>
<TimeStamp><when>2017-12-03T06:55:51Z</when></TimeStamp>
<Point>
<coordinates>35.21150642,32.10434812,0 </coordinates>
</Point>
</Placemark>
<Placemark>
<name>Ariel_University</name>
<description>Name: <b>Ariel_University</b><br/>Timestamp (UTC): <b>1512284037000</b><br/>Date: <b>2017-12-03 06:53:57 </b><br/>BSSID: <b>1c:b9:c4:16:2d:e8</b><br/>Capabilities: <b>[ESS]</b><br/>AccuracyMeters: <b>3</b><br/></description>
<styleUrl>#green</styleUrl>
<TimeStamp><when>2017-12-03T06:53:57Z</when></TimeStamp>
<Point>
<coordinates>35.20932755,32.10430866,0 </coordinates>
</Point>
</Placemark>
<Placemark>
<name>Ariel_University</name>
<description>Name: <b>Ariel_University</b><br/>Timestamp (UTC): <b>1512284076000</b><br/>Date: <b>2017-12-03 06:54:36 </b><br/>BSSID: <b>1c:b9:c4:14:2f:68</b><br/>Capabilities: <b>[ESS]</b><br/>AccuracyMeters: <b>4</b><br/></description>
<styleUrl>#green</styleUrl>
<TimeStamp><when>2017-12-03T06:54:36Z</when></TimeStamp>
<Point>
<coordinates>35.20894955,32.1022576,0 </coordinates>
</Point>
</Placemark>
<Placemark>
<name>outsense</name>
<description>Name: <b>outsense</b><br/>Timestamp (UTC): <b>1512284019000</b><br/>Date: <b>2017-12-03 06:53:39 </b><br/>BSSID: <b>c2:6c:ac:a0:7b:4d</b><br/>Capabilities: <b>[WPA2-PSK-CCMP-preauth][ESS]</b><br/>AccuracyMeters: <b>3</b><br/></description>
<styleUrl>#red</styleUrl>
<TimeStamp><when>2017-12-03T06:53:39Z</when></TimeStamp>
<Point>
<coordinates>35.21025994,32.1048406,0 </coordinates>
</Point>
</Placemark>
<Placemark>
<name>Ariel_University</name>
<description>Name: <b>Ariel_University</b><br/>Timestamp (UTC): <b>1512284073000</b><br/>Date: <b>2017-12-03 06:54:33 </b><br/>BSSID: <b>1c:b9:c4:12:7c:c8</b><br/>Capabilities: <b>[ESS]</b><br/>AccuracyMeters: <b>3</b><br/></description>
<styleUrl>#green</styleUrl>
<TimeStamp><when>2017-12-03T06:54:33Z</when></TimeStamp>
<Point>
<coordinates>35.20884914,32.10244119,0 </coordinates>
</Point>
</Placemark>
<Placemark>
<name>Ariel_University</name>
<description>Name: <b>Ariel_University</b><br/>Timestamp (UTC): <b>1512284004000</b><br/>Date: <b>2017-12-03 06:53:24 </b><br/>BSSID: <b>1c:b9:c4:15:44:58</b><br/>Capabilities: <b>[ESS]</b><br/>AccuracyMeters: <b>3</b><br/></description>
<styleUrl>#green</styleUrl>
<TimeStamp><when>2017-12-03T06:53:24Z</when></TimeStamp>
<Point>
<coordinates>35.21107852,32.1050222,0 </coordinates>
</Point>
</Placemark>
<Placemark>
<name>Ariel_University</name>
<description>Name: <b>Ariel_University</b><br/>Timestamp (UTC): <b>1512284040000</b><br/>Date: <b>2017-12-03 06:54 </b><br/>BSSID: <b>1c:b9:c4:15:1c:b8</b><br/>Capabilities: <b>[ESS]</b><br/>AccuracyMeters: <b>3</b><br/></description>
<styleUrl>#green</styleUrl>
<TimeStamp><when>2017-12-03T06:54Z</when></TimeStamp>
<Point>
<coordinates>35.20917533,32.10419361,0 </coordinates>
</Point>
</Placemark>
<Placemark>
<name>Ariel_University</name>
<description>Name: <b>Ariel_University</b><br/>Timestamp (UTC): <b>1512284064000</b><br/>Date: <b>2017-12-03 06:54:24 </b><br/>BSSID: <b>1c:b9:c4:14:2f:68</b><br/>Capabilities: <b>[ESS]</b><br/>AccuracyMeters: <b>4</b><br/></description>
<styleUrl>#green</styleUrl>
<TimeStamp><when>2017-12-03T06:54:24Z</when></TimeStamp>
<Point>
<coordinates>35.20871988,32.10301827,0 </coordinates>
</Point>
</Placemark>
<Placemark>
<name>DIRECT-B1-HP DeskJet 3830 series</name>
<description>Name: <b>DIRECT-B1-HP DeskJet 3830 series</b><br/>Timestamp (UTC): <b>1512284025000</b><br/>Date: <b>2017-12-03 06:53:45 </b><br/>BSSID: <b>70:5a:0f:57:04:17</b><br/>Capabilities: <b>[WPA2-PSK-CCMP][WPS][ESS]</b><br/>AccuracyMeters: <b>3</b><br/></description>
<styleUrl>#red</styleUrl>
<TimeStamp><when>2017-12-03T06:53:45Z</when></TimeStamp>
<Point>
<coordinates>35.20990936,32.10466627,0 </coordinates>
</Point>
</Placemark>
<Placemark>
<name>Ariel_University</name>
<description>Name: <b>Ariel_University</b><br/>Timestamp (UTC): <b>1512284073000</b><br/>Date: <b>2017-12-03 06:54:33 </b><br/>BSSID: <b>1c:b9:c4:16:28:e8</b><br/>Capabilities: <b>[ESS]</b><br/>AccuracyMeters: <b>3</b><br/></description>
<styleUrl>#green</styleUrl>
<TimeStamp><when>2017-12-03T06:54:33Z</when></TimeStamp>
<Point>
<coordinates>35.20884914,32.10244119,0 </coordinates>
</Point>
</Placemark>
<Placemark>
<name>Ariel_University</name>
<description>Name: <b>Ariel_University</b><br/>Timestamp (UTC): <b>1512284140000</b><br/>Date: <b>2017-12-03 06:55:40 </b><br/>BSSID: <b>1c:b9:c4:16:ed:38</b><br/>Capabilities: <b>[ESS]</b><br/>AccuracyMeters: <b>3</b><br/></description>
<styleUrl>#green</styleUrl>
<TimeStamp><when>2017-12-03T06:55:40Z</when></TimeStamp>
<Point>
<coordinates>35.21091349,32.10412387,0 </coordinates>
</Point>
</Placemark>
<Placemark>
<name>AUC_4_2_24</name>
<description>Name: <b>AUC_4_2_24</b><br/>Timestamp (UTC): <b>1512284142000</b><br/>Date: <b>2017-12-03 06:55:42 </b><br/>BSSID: <b>d8:5d:4c:9e:69:22</b><br/>Capabilities: <b>[ESS]</b><br/>AccuracyMeters: <b>3</b><br/></description>
<styleUrl>#green</styleUrl>
<TimeStamp><when>2017-12-03T06:55:42Z</when></TimeStamp>
<Point>
<coordinates>35.21101715,32.10415215,0 </coordinates>
</Point>
</Placemark>
<Placemark>
<name>Ariel_University</name>
<description>Name: <b>Ariel_University</b><br/>Timestamp (UTC): <b>1512284061000</b><br/>Date: <b>2017-12-03 06:54:21 </b><br/>BSSID: <b>1c:b9:c4:14:2f:68</b><br/>Capabilities: <b>[ESS]</b><br/>AccuracyMeters: <b>4</b><br/></description>
<styleUrl>#green</styleUrl>
<TimeStamp><when>2017-12-03T06:54:21Z</when></TimeStamp>
<Point>
<coordinates>35.20873143,32.10318952,0 </coordinates>
</Point>
</Placemark>
<Placemark>
<name>AUC_4_2_24</name>
<description>Name: <b>AUC_4_2_24</b><br/>Timestamp (UTC): <b>1512284125000</b><br/>Date: <b>2017-12-03 06:55:25 </b><br/>BSSID: <b>d8:5d:4c:9e:69:22</b><br/>Capabilities: <b>[ESS]</b><br/>AccuracyMeters: <b>3</b><br/></description>
<styleUrl>#green</styleUrl>
<TimeStamp><when>2017-12-03T06:55:25Z</when></TimeStamp>
<Point>
<coordinates>35.20992695,32.10357832,0 </coordinates>
</Point>
</Placemark>
<Placemark>
<name>Ariel_University</name>
<description>Name: <b>Ariel_University</b><br/>Timestamp (UTC): <b>1512284145000</b><br/>Date: <b>2017-12-03 06:55:45 </b><br/>BSSID: <b>1c:b9:c4:15:41:78</b><br/>Capabilities: <b>[ESS]</b><br/>AccuracyMeters: <b>3</b><br/></description>
<styleUrl>#green</styleUrl>
<TimeStamp><when>2017-12-03T06:55:45Z</when></TimeStamp>
<Point>
<coordinates>35.21118813,32.10418089,0 </coordinates>
</Point>
</Placemark>
<Placemark>
<name>Ariel_University</name>
<description>Name: <b>Ariel_University</b><br/>Timestamp (UTC): <b>1512284148000</b><br/>Date: <b>2017-12-03 06:55:48 </b><br/>BSSID: <b>1c:b9:c4:15:1c:b8</b><br/>Capabilities: <b>[ESS]</b><br/>AccuracyMeters: <b>3</b><br/></description>
<styleUrl>#green</styleUrl>
<TimeStamp><when>2017-12-03T06:55:48Z</when></TimeStamp>
<Point>
<coordinates>35.21138319,32.10423611,0 </coordinates>
</Point>
</Placemark>
<Placemark>
<name>Ariel_University</name>
<description>Name: <b>Ariel_University</b><br/>Timestamp (UTC): <b>1512284049000</b><br/>Date: <b>2017-12-03 06:54:09 </b><br/>BSSID: <b>e0:10:7f:1a:bd:98</b><br/>Capabilities: <b>[ESS]</b><br/>AccuracyMeters: <b>3</b><br/></description>
<styleUrl>#green</styleUrl>
<TimeStamp><when>2017-12-03T06:54:09Z</when></TimeStamp>
<Point>
<coordinates>35.20883622,32.10376365,0 </coordinates>
</Point>
</Placemark>
<Placemark>
<name>Ariel_University</name>
<description>Name: <b>Ariel_University</b><br/>Timestamp (UTC): <b>1512284049000</b><br/>Date: <b>2017-12-03 06:54:09 </b><br/>BSSID: <b>1c:b9:c4:16:1d:7c</b><br/>Capabilities: <b>[ESS]</b><br/>AccuracyMeters: <b>3</b><br/></description>
<styleUrl>#green</styleUrl>
<TimeStamp><when>2017-12-03T06:54:09Z</when></TimeStamp>
<Point>
<coordinates>35.20883622,32.10376365,0 </coordinates>
</Point>
</Placemark>
<Placemark>
<name>Ariel_University</name>
<description>Name: <b>Ariel_University</b><br/>Timestamp (UTC): <b>1512284070000</b><br/>Date: <b>2017-12-03 06:54:30 </b><br/>BSSID: <b>1c:b9:c4:16:28:f8</b><br/>Capabilities: <b>[ESS]</b><br/>AccuracyMeters: <b>4</b><br/></description>
<styleUrl>#green</styleUrl>
<TimeStamp><when>2017-12-03T06:54:30Z</when></TimeStamp>
<Point>
<coordinates>35.20876629,32.10263124,0 </coordinates>
</Point>
</Placemark>
<Placemark>
<name></name>
<description>Name: <b></b><br/>Timestamp (UTC): <b>1512284067000</b><br/>Date: <b>2017-12-03 06:54:27 </b><br/>BSSID: <b>8c:0c:90:ad:75:e3</b><br/>Capabilities: <b>[WPA2-PSK-CCMP][ESS]</b><br/>AccuracyMeters: <b>3</b><br/></description>
<styleUrl>#red</styleUrl>
<TimeStamp><when>2017-12-03T06:54:27Z</when></TimeStamp>
<Point>
<coordinates>35.20871899,32.10282362,0 </coordinates>
</Point>
</Placemark>
<Placemark>
<name>Ariel_University</name>
<description>Name: <b>Ariel_University</b><br/>Timestamp (UTC): <b>1512284130000</b><br/>Date: <b>2017-12-03 06:55:30 </b><br/>BSSID: <b>24:79:2a:2b:07:b8</b><br/>Capabilities: <b>[ESS]</b><br/>AccuracyMeters: <b>3</b><br/></description>
<styleUrl>#green</styleUrl>
<TimeStamp><when>2017-12-03T06:55:30Z</when></TimeStamp>
<Point>
<coordinates>35.21019984,32.10379261,0 </coordinates>
</Point>
</Placemark>
<Placemark>
<name>Ariel_University</name>
<description>Name: <b>Ariel_University</b><br/>Timestamp (UTC): <b>1512284154000</b><br/>Date: <b>2017-12-03 06:55:54 </b><br/>BSSID: <b>1c:b9:c4:15:ed:48</b><br/>Capabilities: <b>[ESS]</b><br/>AccuracyMeters: <b>3</b><br/></description>
<styleUrl>#green</styleUrl>
<TimeStamp><when>2017-12-03T06:55:54Z</when></TimeStamp>
<Point>
<coordinates>35.21158147,32.10450422,0 </coordinates>
</Point>
</Placemark>
<Placemark>
<name>Ariel_University</name>
<description>Name: <b>Ariel_University</b><br/>Timestamp (UTC): <b>1512284140000</b><br/>Date: <b>2017-12-03 06:55:40 </b><br/>BSSID: <b>8c:0c:90:2f:d3:d8</b><br/>Capabilities: <b>[ESS]</b><br/>AccuracyMeters: <b>3</b><br/></description>
<styleUrl>#green</styleUrl>
<TimeStamp><when>2017-12-03T06:55:40Z</when></TimeStamp>
<Point>
<coordinates>35.21091349,32.10412387,0 </coordinates>
</Point>
</Placemark>
<Placemark>
<name>TP-LINK_ADD150</name>
<description>Name: <b>TP-LINK_ADD150</b><br/>Timestamp (UTC): <b>1512284022000</b><br/>Date: <b>2017-12-03 06:53:42 </b><br/>BSSID: <b>74:ea:3a:ad:d1:50</b><br/>Capabilities: <b>[WPS][ESS]</b><br/>AccuracyMeters: <b>3</b><br/></description>
<styleUrl>#green</styleUrl>
<TimeStamp><when>2017-12-03T06:53:42Z</when></TimeStamp>
<Point>
<coordinates>35.21007474,32.10475343,0 </coordinates>
</Point>
</Placemark>
<Placemark>
<name>Ariel_University</name>
<description>Name: <b>Ariel_University</b><br/>Timestamp (UTC): <b>1512284091000</b><br/>Date: <b>2017-12-03 06:54:51 </b><br/>BSSID: <b>1c:b9:c4:14:2b:d8</b><br/>Capabilities: <b>[ESS]</b><br/>AccuracyMeters: <b>3</b><br/></description>
<styleUrl>#green</styleUrl>
<TimeStamp><when>2017-12-03T06:54:51Z</when></TimeStamp>
<Point>
<coordinates>35.20998301,32.10212708,0 </coordinates>
</Point>
</Placemark>
<Placemark>
<name>Ariel_University</name>
<description>Name: <b>Ariel_University</b><br/>Timestamp (UTC): <b>1512284016000</b><br/>Date: <b>2017-12-03 06:53:36 </b><br/>BSSID: <b>1c:b9:c4:16:2d:e8</b><br/>Capabilities: <b>[ESS]</b><br/>AccuracyMeters: <b>3</b><br/></description>
<styleUrl>#green</styleUrl>
<TimeStamp><when>2017-12-03T06:53:36Z</when></TimeStamp>
<Point>
<coordinates>35.21044203,32.10490203,0 </coordinates>
</Point>
</Placemark>
<Placemark>
<name>Ariel_University</name>
<description>Name: <b>Ariel_University</b><br/>Timestamp (UTC): <b>1512284061000</b><br/>Date: <b>2017-12-03 06:54:21 </b><br/>BSSID: <b>1c:b9:c4:16:28:f8</b><br/>Capabilities: <b>[ESS]</b><br/>AccuracyMeters: <b>4</b><br/></description>
<styleUrl>#green</styleUrl>
<TimeStamp><when>2017-12-03T06:54:21Z</when></TimeStamp>
<Point>
<coordinates>35.20873143,32.10318952,0 </coordinates>
</Point>
</Placemark>
<Placemark>
<name>Ariel_University</name>
<description>Name: <b>Ariel_University</b><br/>Timestamp (UTC): <b>1512284073000</b><br/>Date: <b>2017-12-03 06:54:33 </b><br/>BSSID: <b>1c:b9:c4:16:d2:88</b><br/>Capabilities: <b>[ESS]</b><br/>AccuracyMeters: <b>3</b><br/></description>
<styleUrl>#green</styleUrl>
<TimeStamp><when>2017-12-03T06:54:33Z</when></TimeStamp>
<Point>
<coordinates>35.20884914,32.10244119,0 </coordinates>
</Point>
</Placemark>
<Placemark>
<name>Ariel_University</name>
<description>Name: <b>Ariel_University</b><br/>Timestamp (UTC): <b>1512284133000</b><br/>Date: <b>2017-12-03 06:55:33 </b><br/>BSSID: <b>1c:b9:c4:14:30:38</b><br/>Capabilities: <b>[ESS]</b><br/>AccuracyMeters: <b>3</b><br/></description>
<styleUrl>#green</styleUrl>
<TimeStamp><when>2017-12-03T06:55:33Z</when></TimeStamp>
<Point>
<coordinates>35.21040928,32.10392655,0 </coordinates>
</Point>
</Placemark>
<Placemark>
<name>Guest</name>
<description>Name: <b>Guest</b><br/>Timestamp (UTC): <b>1512284025000</b><br/>Date: <b>2017-12-03 06:53:45 </b><br/>BSSID: <b>90:6c:ac:a0:60:4d</b><br/>Capabilities: <b>[WPA2-PSK-CCMP-preauth][ESS]</b><br/>AccuracyMeters: <b>3</b><br/></description>
<styleUrl>#red</styleUrl>
<TimeStamp><when>2017-12-03T06:53:45Z</when></TimeStamp>
<Point>
<coordinates>35.20990936,32.10466627,0 </coordinates>
</Point>
</Placemark>
<Placemark>
<name>KCG-ADSL</name>
<description>Name: <b>KCG-ADSL</b><br/>Timestamp (UTC): <b>1512284111000</b><br/>Date: <b>2017-12-03 06:55:11 </b><br/>BSSID: <b>00:1d:aa:81:d8:3c</b><br/>Capabilities: <b>[WPA2-PSK-CCMP][WPS][ESS]</b><br/>AccuracyMeters: <b>4</b><br/></description>
<styleUrl>#red</styleUrl>
<TimeStamp><when>2017-12-03T06:55:11Z</when></TimeStamp>
<Point>
<coordinates>35.20983303,32.10290524,0 </coordinates>
</Point>
</Placemark>
<Placemark>
<name>Ariel_University</name>
<description>Name: <b>Ariel_University</b><br/>Timestamp (UTC): <b>1512284031000</b><br/>Date: <b>2017-12-03 06:53:51 </b><br/>BSSID: <b>24:79:2a:2c:5b:d8</b><br/>Capabilities: <b>[ESS]</b><br/>AccuracyMeters: <b>3</b><br/></description>
<styleUrl>#green</styleUrl>
<TimeStamp><when>2017-12-03T06:53:51Z</when></TimeStamp>
<Point>
<coordinates>35.20960715,32.10448173,0 </coordinates>
</Point>
</Placemark>
<Placemark>
<name>Ariel_University</name>
<description>Name: <b>Ariel_University</b><br/>Timestamp (UTC): <b>1512284013000</b><br/>Date: <b>2017-12-03 06:53:33 </b><br/>BSSID: <b>1c:b9:c4:16:05:38</b><br/>Capabilities: <b>[ESS]</b><br/>AccuracyMeters: <b>3</b><br/></description>
<styleUrl>#green</styleUrl>
<TimeStamp><when>2017-12-03T06:53:33Z</when></TimeStamp>
<Point>
<coordinates>35.21060853,32.10495375,0 </coordinates>
</Point>
</Placemark>
<Placemark>
<name>Ariel_University</name>
<description>Name: <b>Ariel_University</b><br/>Timestamp (UTC): <b>1512283988000</b><br/>Date: <b>2017-12-03 06:53:08 </b><br/>BSSID: <b>1c:b9:c4:15:42:68</b><br/>Capabilities: <b>[ESS]</b><br/>AccuracyMeters: <b>3</b><br/></description>
<styleUrl>#green</styleUrl>
<TimeStamp><when>2017-12-03T06:53:08Z</when></TimeStamp>
<Point>
<coordinates>35.21134308,32.10487307,0 </coordinates>
</Point>
</Placemark>
<Placemark>
<name>Ariel_University</name>
<description>Name: <b>Ariel_University</b><br/>Timestamp (UTC): <b>1512284148000</b><br/>Date: <b>2017-12-03 06:55:48 </b><br/>BSSID: <b>1c:b9:c4:16:06:b8</b><br/>Capabilities: <b>[ESS]</b><br/>AccuracyMeters: <b>3</b><br/></description>
<styleUrl>#green</styleUrl>
<TimeStamp><when>2017-12-03T06:55:48Z</when></TimeStamp>
<Point>
<coordinates>35.21138319,32.10423611,0 </coordinates>
</Point>
</Placemark>
<Placemark>
<name>Ariel_University</name>
<description>Name: <b>Ariel_University</b><br/>Timestamp (UTC): <b>1512284016000</b><br/>Date: <b>2017-12-03 06:53:36 </b><br/>BSSID: <b>1c:b9:c4:15:ed:48</b><br/>Capabilities: <b>[ESS]</b><br/>AccuracyMeters: <b>3</b><br/></description>
<styleUrl>#green</styleUrl>
<TimeStamp><when>2017-12-03T06:53:36Z</when></TimeStamp>
<Point>
<coordinates>35.21044203,32.10490203,0 </coordinates>
</Point>
</Placemark>
<Placemark>
<name>Ariel_University</name>
<description>Name: <b>Ariel_University</b><br/>Timestamp (UTC): <b>1512284140000</b><br/>Date: <b>2017-12-03 06:55:40 </b><br/>BSSID: <b>1c:b9:c4:12:90:b8</b><br/>Capabilities: <b>[ESS]</b><br/>AccuracyMeters: <b>3</b><br/></description>
<styleUrl>#green</styleUrl>
<TimeStamp><when>2017-12-03T06:55:40Z</when></TimeStamp>
<Point>
<coordinates>35.21091349,32.10412387,0 </coordinates>
</Point>
</Placemark>
<Placemark>
<name>Ariel_University</name>
<description>Name: <b>Ariel_University</b><br/>Timestamp (UTC): <b>1512284160000</b><br/>Date: <b>2017-12-03 06:56 </b><br/>BSSID: <b>1c:b9:c4:56:cd:18</b><br/>Capabilities: <b>[ESS]</b><br/>AccuracyMeters: <b>3</b><br/></description>
<styleUrl>#green</styleUrl>
<TimeStamp><when>2017-12-03T06:56Z</when></TimeStamp>
<Point>
<coordinates>35.2115156,32.10476714,0 </coordinates>
</Point>
</Placemark>
<Placemark>
<name>EVE</name>
<description>Name: <b>EVE</b><br/>Timestamp (UTC): <b>1512284025000</b><br/>Date: <b>2017-12-03 06:53:45 </b><br/>BSSID: <b>90:6c:ac:a0:7b:4d</b><br/>Capabilities: <b>[WPA2-PSK-CCMP-preauth][ESS]</b><br/>AccuracyMeters: <b>3</b><br/></description>
<styleUrl>#red</styleUrl>
<TimeStamp><when>2017-12-03T06:53:45Z</when></TimeStamp>
<Point>
<coordinates>35.20990936,32.10466627,0 </coordinates>
</Point>
</Placemark>
<Placemark>
<name>Ariel_University</name>
<description>Name: <b>Ariel_University</b><br/>Timestamp (UTC): <b>1512284034000</b><br/>Date: <b>2017-12-03 06:53:54 </b><br/>BSSID: <b>1c:b9:c4:16:1d:78</b><br/>Capabilities: <b>[ESS]</b><br/>AccuracyMeters: <b>3</b><br/></description>
<styleUrl>#green</styleUrl>
<TimeStamp><when>2017-12-03T06:53:54Z</when></TimeStamp>
<Point>
<coordinates>35.20946023,32.10440239,0 </coordinates>
</Point>
</Placemark>
<Placemark>
<name>Ariel_University</name>
<description>Name: <b>Ariel_University</b><br/>Timestamp (UTC): <b>1512284130000</b><br/>Date: <b>2017-12-03 06:55:30 </b><br/>BSSID: <b>24:79:2a:2c:5c:18</b><br/>Capabilities: <b>[ESS]</b><br/>AccuracyMeters: <b>3</b><br/></description>
<styleUrl>#green</styleUrl>
<TimeStamp><when>2017-12-03T06:55:30Z</when></TimeStamp>
<Point>
<coordinates>35.21019984,32.10379261,0 </coordinates>
</Point>
</Placemark>
<Placemark>
<name>Ariel_University</name>
<description>Name: <b>Ariel_University</b><br/>Timestamp (UTC): <b>1512284061000</b><br/>Date: <b>2017-12-03 06:54:21 </b><br/>BSSID: <b>1c:b9:c4:12:90:b8</b><br/>Capabilities: <b>[ESS]</b><br/>AccuracyMeters: <b>4</b><br/></description>
<styleUrl>#green</styleUrl>
<TimeStamp><when>2017-12-03T06:54:21Z</when></TimeStamp>
<Point>
<coordinates>35.20873143,32.10318952,0 </coordinates>
</Point>
</Placemark>
<Placemark>
<name>Ariel_University</name>
<description>Name: <b>Ariel_University</b><br/>Timestamp (UTC): <b>1512284016000</b><br/>Date: <b>2017-12-03 06:53:36 </b><br/>BSSID: <b>1c:b9:c4:16:05:38</b><br/>Capabilities: <b>[ESS]</b><br/>AccuracyMeters: <b>3</b><br/></description>
<styleUrl>#green</styleUrl>
<TimeStamp><when>2017-12-03T06:53:36Z</when></TimeStamp>
<Point>
<coordinates>35.21044203,32.10490203,0 </coordinates>
</Point>
</Placemark>
<Placemark>
<name>Ariel_University</name>
<description>Name: <b>Ariel_University</b><br/>Timestamp (UTC): <b>1512284070000</b><br/>Date: <b>2017-12-03 06:54:30 </b><br/>BSSID: <b>1c:b9:c4:16:ee:98</b><br/>Capabilities: <b>[ESS]</b><br/>AccuracyMeters: <b>4</b><br/></description>
<styleUrl>#green</styleUrl>
<TimeStamp><when>2017-12-03T06:54:30Z</when></TimeStamp>
<Point>
<coordinates>35.20876629,32.10263124,0 </coordinates>
</Point>
</Placemark>
<Placemark>
<name>Ariel_University</name>
<description>Name: <b>Ariel_University</b><br/>Timestamp (UTC): <b>1512284115000</b><br/>Date: <b>2017-12-03 06:55:15 </b><br/>BSSID: <b>1c:b9:c4:16:ee:98</b><br/>Capabilities: <b>[ESS]</b><br/>AccuracyMeters: <b>3</b><br/></description>
<styleUrl>#green</styleUrl>
<TimeStamp><when>2017-12-03T06:55:15Z</when></TimeStamp>
<Point>
<coordinates>35.20978446,32.10305306,0 </coordinates>
</Point>
</Placemark>
<Placemark>
<name>Ariel_University</name>
<description>Name: <b>Ariel_University</b><br/>Timestamp (UTC): <b>1512284088000</b><br/>Date: <b>2017-12-03 06:54:48 </b><br/>BSSID: <b>1c:b9:c4:14:33:c8</b><br/>Capabilities: <b>[ESS]</b><br/>AccuracyMeters: <b>4</b><br/></description>
<styleUrl>#green</styleUrl>
<TimeStamp><when>2017-12-03T06:54:48Z</when></TimeStamp>
<Point>
<coordinates>35.2098381,32.10199722,0 </coordinates>
</Point>
</Placemark>
<Placemark>
<name>Ariel_University</name>
<description>Name: <b>Ariel_University</b><br/>Timestamp (UTC): <b>1512284120000</b><br/>Date: <b>2017-12-03 06:55:20 </b><br/>BSSID: <b>1c:b9:c4:16:ed:48</b><br/>Capabilities: <b>[ESS]</b><br/>AccuracyMeters: <b>3</b><br/></description>
<styleUrl>#green</styleUrl>
<TimeStamp><when>2017-12-03T06:55:20Z</when></TimeStamp>
<Point>
<coordinates>35.20979335,32.10330416,0 </coordinates>
</Point>
</Placemark>
<Placemark>
<name>EVE</name>
<description>Name: <b>EVE</b><br/>Timestamp (UTC): <b>1512284019000</b><br/>Date: <b>2017-12-03 06:53:39 </b><br/>BSSID: <b>90:6c:ac:a0:7b:4d</b><br/>Capabilities: <b>[WPA2-PSK-CCMP-preauth][ESS]</b><br/>AccuracyMeters: <b>3</b><br/></description>
<styleUrl>#red</styleUrl>
<TimeStamp><when>2017-12-03T06:53:39Z</when></TimeStamp>
<Point>
<coordinates>35.21025994,32.1048406,0 </coordinates>
</Point>
</Placemark>
<Placemark>
<name>paysday</name>
<description>Name: <b>paysday</b><br/>Timestamp (UTC): <b>1512284043000</b><br/>Date: <b>2017-12-03 06:54:03 </b><br/>BSSID: <b>b2:6c:ac:9f:f1:c5</b><br/>Capabilities: <b>[WPA2-PSK-CCMP-preauth][ESS]</b><br/>AccuracyMeters: <b>3</b><br/></description>
<styleUrl>#red</styleUrl>
<TimeStamp><when>2017-12-03T06:54:03Z</when></TimeStamp>
<Point>
<coordinates>35.20902709,32.10406321,0 </coordinates>
</Point>
</Placemark>
<Placemark>
<name>Ariel_University</name>
<description>Name: <b>Ariel_University</b><br/>Timestamp (UTC): <b>1512284073000</b><br/>Date: <b>2017-12-03 06:54:33 </b><br/>BSSID: <b>ec:8c:a2:08:78:c8</b><br/>Capabilities: <b>[ESS]</b><br/>AccuracyMeters: <b>3</b><br/></description>
<styleUrl>#green</styleUrl>
<TimeStamp><when>2017-12-03T06:54:33Z</when></TimeStamp>
<Point>
<coordinates>35.20884914,32.10244119,0 </coordinates>
</Point>
</Placemark>
<Placemark>
<name>036518749</name>
<description>Name: <b>036518749</b><br/>Timestamp (UTC): <b>1512284070000</b><br/>Date: <b>2017-12-03 06:54:30 </b><br/>BSSID: <b>a0:ab:1b:60:b4:ca</b><br/>Capabilities: <b>[WPA2-PSK-CCMP][ESS]</b><br/>AccuracyMeters: <b>4</b><br/></description>
<styleUrl>#red</styleUrl>
<TimeStamp><when>2017-12-03T06:54:30Z</when></TimeStamp>
<Point>
<coordinates>35.20876629,32.10263124,0 </coordinates>
</Point>
</Placemark>
<Placemark>
<name>Ariel_University</name>
<description>Name: <b>Ariel_University</b><br/>Timestamp (UTC): <b>1512284067000</b><br/>Date: <b>2017-12-03 06:54:27 </b><br/>BSSID: <b>8c:0c:90:2d:75:e8</b><br/>Capabilities: <b>[ESS]</b><br/>AccuracyMeters: <b>3</b><br/></description>
<styleUrl>#green</styleUrl>
<TimeStamp><when>2017-12-03T06:54:27Z</when></TimeStamp>
<Point>
<coordinates>35.20871899,32.10282362,0 </coordinates>
</Point>
</Placemark>
<Placemark>
<name>Ariel_University</name>
<description>Name: <b>Ariel_University</b><br/>Timestamp (UTC): <b>1512284115000</b><br/>Date: <b>2017-12-03 06:55:15 </b><br/>BSSID: <b>1c:b9:c4:16:11:a8</b><br/>Capabilities: <b>[ESS]</b><br/>AccuracyMeters: <b>3</b><br/></description>
<styleUrl>#green</styleUrl>
<TimeStamp><when>2017-12-03T06:55:15Z</when></TimeStamp>
<Point>
<coordinates>35.20978446,32.10305306,0 </coordinates>
</Point>
</Placemark>
<Placemark>
<name>Ariel_University</name>
<description>Name: <b>Ariel_University</b><br/>Timestamp (UTC): <b>1512284148000</b><br/>Date: <b>2017-12-03 06:55:48 </b><br/>BSSID: <b>24:79:2a:2b:bd:88</b><br/>Capabilities: <b>[ESS]</b><br/>AccuracyMeters: <b>3</b><br/></description>
<styleUrl>#green</styleUrl>
<TimeStamp><when>2017-12-03T06:55:48Z</when></TimeStamp>
<Point>
<coordinates>35.21138319,32.10423611,0 </coordinates>
</Point>
</Placemark>
<Placemark>
<name>Ariel_University</name>
<description>Name: <b>Ariel_University</b><br/>Timestamp (UTC): <b>1512284091000</b><br/>Date: <b>2017-12-03 06:54:51 </b><br/>BSSID: <b>1c:b9:c4:14:2b:dc</b><br/>Capabilities: <b>[ESS]</b><br/>AccuracyMeters: <b>3</b><br/></description>
<styleUrl>#green</styleUrl>
<TimeStamp><when>2017-12-03T06:54:51Z</when></TimeStamp>
<Point>
<coordinates>35.20998301,32.10212708,0 </coordinates>
</Point>
</Placemark>
<Placemark>
<name>Ariel_University</name>
<description>Name: <b>Ariel_University</b><br/>Timestamp (UTC): <b>1512284120000</b><br/>Date: <b>2017-12-03 06:55:20 </b><br/>BSSID: <b>1c:b9:c4:16:06:b8</b><br/>Capabilities: <b>[ESS]</b><br/>AccuracyMeters: <b>3</b><br/></description>
<styleUrl>#green</styleUrl>
<TimeStamp><when>2017-12-03T06:55:20Z</when></TimeStamp>
<Point>
<coordinates>35.20979335,32.10330416,0 </coordinates>
</Point>
</Placemark>
<Placemark>
<name>Ariel_University</name>
<description>Name: <b>Ariel_University</b><br/>Timestamp (UTC): <b>1512284049000</b><br/>Date: <b>2017-12-03 06:54:09 </b><br/>BSSID: <b>ec:8c:a2:08:78:c8</b><br/>Capabilities: <b>[ESS]</b><br/>AccuracyMeters: <b>3</b><br/></description>
<styleUrl>#green</styleUrl>
<TimeStamp><when>2017-12-03T06:54:09Z</when></TimeStamp>
<Point>
<coordinates>35.20883622,32.10376365,0 </coordinates>
</Point>
</Placemark>
<Placemark>
<name>Ariel_University</name>
<description>Name: <b>Ariel_University</b><br/>Timestamp (UTC): <b>1512284079000</b><br/>Date: <b>2017-12-03 06:54:39 </b><br/>BSSID: <b>1c:b9:c4:16:f4:78</b><br/>Capabilities: <b>[ESS]</b><br/>AccuracyMeters: <b>4</b><br/></description>
<styleUrl>#green</styleUrl>
<TimeStamp><when>2017-12-03T06:54:39Z</when></TimeStamp>
<Point>
<coordinates>35.20912829,32.10212198,0 </coordinates>
</Point>
</Placemark>
<Placemark>
<name>Ariel_University</name>
<description>Name: <b>Ariel_University</b><br/>Timestamp (UTC): <b>1512284046000</b><br/>Date: <b>2017-12-03 06:54:06 </b><br/>BSSID: <b>1c:b9:c4:15:23:58</b><br/>Capabilities: <b>[ESS]</b><br/>AccuracyMeters: <b>3</b><br/></description>
<styleUrl>#green</styleUrl>
<TimeStamp><when>2017-12-03T06:54:06Z</when></TimeStamp>
<Point>
<coordinates>35.20892354,32.10391893,0 </coordinates>
</Point>
</Placemark>
<Placemark>
<name>Ariel_University</name>
<description>Name: <b>Ariel_University</b><br/>Timestamp (UTC): <b>1512284040000</b><br/>Date: <b>2017-12-03 06:54 </b><br/>BSSID: <b>ec:8c:a2:26:b0:e8</b><br/>Capabilities: <b>[ESS]</b><br/>AccuracyMeters: <b>3</b><br/></description>
<styleUrl>#green</styleUrl>
<TimeStamp><when>2017-12-03T06:54Z</when></TimeStamp>
<Point>
<coordinates>35.20917533,32.10419361,0 </coordinates>
</Point>
</Placemark>
<Placemark>
<name>paysday</name>
<description>Name: <b>paysday</b><br/>Timestamp (UTC): <b>1512284040000</b><br/>Date: <b>2017-12-03 06:54 </b><br/>BSSID: <b>b2:6c:ac:9f:f1:c5</b><br/>Capabilities: <b>[WPA2-PSK-CCMP-preauth][ESS]</b><br/>AccuracyMeters: <b>3</b><br/></description>
<styleUrl>#red</styleUrl>
<TimeStamp><when>2017-12-03T06:54Z</when></TimeStamp>
<Point>
<coordinates>35.20917533,32.10419361,0 </coordinates>
</Point>
</Placemark>
<Placemark>
<name>Ariel_University</name>
<description>Name: <b>Ariel_University</b><br/>Timestamp (UTC): <b>1512284061000</b><br/>Date: <b>2017-12-03 06:54:21 </b><br/>BSSID: <b>1c:b9:c4:16:f4:78</b><br/>Capabilities: <b>[ESS]</b><br/>AccuracyMeters: <b>4</b><br/></description>
<styleUrl>#green</styleUrl>
<TimeStamp><when>2017-12-03T06:54:21Z</when></TimeStamp>
<Point>
<coordinates>35.20873143,32.10318952,0 </coordinates>
</Point>
</Placemark>
<Placemark>
<name>Ariel_University</name>
<description>Name: <b>Ariel_University</b><br/>Timestamp (UTC): <b>1512284043000</b><br/>Date: <b>2017-12-03 06:54:03 </b><br/>BSSID: <b>1c:b9:c4:15:fd:48</b><br/>Capabilities: <b>[ESS]</b><br/>AccuracyMeters: <b>3</b><br/></description>
<styleUrl>#green</styleUrl>
<TimeStamp><when>2017-12-03T06:54:03Z</when></TimeStamp>
<Point>
<coordinates>35.20902709,32.10406321,0 </coordinates>
</Point>
</Placemark>
<Placemark>
<name>Ariel_University</name>
<description>Name: <b>Ariel_University</b><br/>Timestamp (UTC): <b>1512284025000</b><br/>Date: <b>2017-12-03 06:53:45 </b><br/>BSSID: <b>1c:b9:c4:16:05:78</b><br/>Capabilities: <b>[ESS]</b><br/>AccuracyMeters: <b>3</b><br/></description>
<styleUrl>#green</styleUrl>
<TimeStamp><when>2017-12-03T06:53:45Z</when></TimeStamp>
<Point>
<coordinates>35.20990936,32.10466627,0 </coordinates>
</Point>
</Placemark>
<Placemark>
<name>Ariel_University</name>
<description>Name: <b>Ariel_University</b><br/>Timestamp (UTC): <b>1512284040000</b><br/>Date: <b>2017-12-03 06:54 </b><br/>BSSID: <b>1c:b9:c4:16:cc:d8</b><br/>Capabilities: <b>[ESS]</b><br/>AccuracyMeters: <b>3</b><br/></description>
<styleUrl>#green</styleUrl>
<TimeStamp><when>2017-12-03T06:54Z</when></TimeStamp>
<Point>
<coordinates>35.20917533,32.10419361,0 </coordinates>
</Point>
</Placemark>
<Placemark>
<name>Ariel_University</name>
<description>Name: <b>Ariel_University</b><br/>Timestamp (UTC): <b>1512284028000</b><br/>Date: <b>2017-12-03 06:53:48 </b><br/>BSSID: <b>1c:b9:c4:15:23:58</b><br/>Capabilities: <b>[ESS]</b><br/>AccuracyMeters: <b>3</b><br/></description>
<styleUrl>#green</styleUrl>
<TimeStamp><when>2017-12-03T06:53:48Z</when></TimeStamp>
<Point>
<coordinates>35.20975804,32.10457483,0 </coordinates>
</Point>
</Placemark>
<Placemark>
<name>Ariel_University</name>
<description>Name: <b>Ariel_University</b><br/>Timestamp (UTC): <b>1512284064000</b><br/>Date: <b>2017-12-03 06:54:24 </b><br/>BSSID: <b>1c:b9:c4:16:f1:98</b><br/>Capabilities: <b>[ESS]</b><br/>AccuracyMeters: <b>4</b><br/></description>
<styleUrl>#green</styleUrl>
<TimeStamp><when>2017-12-03T06:54:24Z</when></TimeStamp>
<Point>
<coordinates>35.20871988,32.10301827,0 </coordinates>
</Point>
</Placemark>
<Placemark>
<name>Ariel_University</name>
<description>Name: <b>Ariel_University</b><br/>Timestamp (UTC): <b>1512284162000</b><br/>Date: <b>2017-12-03 06:56:02 </b><br/>BSSID: <b>1c:b9:c4:14:2b:c8</b><br/>Capabilities: <b>[ESS]</b><br/>AccuracyMeters: <b>3</b><br/></description>
<styleUrl>#green</styleUrl>
<TimeStamp><when>2017-12-03T06:56:02Z</when></TimeStamp>
<Point>
<coordinates>35.2114539,32.10481492,0 </coordinates>
</Point>
</Placemark>
<Placemark>
<name>Ariel_University</name>
<description>Name: <b>Ariel_University</b><br/>Timestamp (UTC): <b>1512284007000</b><br/>Date: <b>2017-12-03 06:53:27 </b><br/>BSSID: <b>1c:b9:c4:15:25:48</b><br/>Capabilities: <b>[ESS]</b><br/>AccuracyMeters: <b>3</b><br/></description>
<styleUrl>#green</styleUrl>
<TimeStamp><when>2017-12-03T06:53:27Z</when></TimeStamp>
<Point>
<coordinates>35.21092655,32.10503208,0 </coordinates>
</Point>
</Placemark>
<Placemark>
<name></name>
<description>Name: <b></b><br/>Timestamp (UTC): <b>1512284061000</b><br/>Date: <b>2017-12-03 06:54:21 </b><br/>BSSID: <b>1c:b9:c4:96:d2:87</b><br/>Capabilities: <b>[WPA2-PSK-CCMP][ESS]</b><br/>AccuracyMeters: <b>4</b><br/></description>
<styleUrl>#red</styleUrl>
<TimeStamp><when>2017-12-03T06:54:21Z</when></TimeStamp>
<Point>
<coordinates>35.20873143,32.10318952,0 </coordinates>
</Point>
</Placemark>
<Placemark>
<name>Ariel_University</name>
<description>Name: <b>Ariel_University</b><br/>Timestamp (UTC): <b>1512284133000</b><br/>Date: <b>2017-12-03 06:55:33 </b><br/>BSSID: <b>1c:b9:c4:14:2b:88</b><br/>Capabilities: <b>[ESS]</b><br/>AccuracyMeters: <b>3</b><br/></description>
<styleUrl>#green</styleUrl>
<TimeStamp><when>2017-12-03T06:55:33Z</when></TimeStamp>
<Point>
<coordinates>35.21040928,32.10392655,0 </coordinates>
</Point>
</Placemark>
<Placemark>
<name></name>
<description>Name: <b></b><br/>Timestamp (UTC): <b>1512284040000</b><br/>Date: <b>2017-12-03 06:54 </b><br/>BSSID: <b>00:02:6f:8e:64:67</b><br/>Capabilities: <b>[ESS]</b><br/>AccuracyMeters: <b>3</b><br/></description>
<styleUrl>#green</styleUrl>
<TimeStamp><when>2017-12-03T06:54Z</when></TimeStamp>
<Point>
<coordinates>35.20917533,32.10419361,0 </coordinates>
</Point>
</Placemark>
<Placemark>
<name>Ariel_University</name>
<description>Name: <b>Ariel_University</b><br/>Timestamp (UTC): <b>1512284148000</b><br/>Date: <b>2017-12-03 06:55:48 </b><br/>BSSID: <b>24:79:2a:2b:07:b8</b><br/>Capabilities: <b>[ESS]</b><br/>AccuracyMeters: <b>3</b><br/></description>
<styleUrl>#green</styleUrl>
<TimeStamp><when>2017-12-03T06:55:48Z</when></TimeStamp>
<Point>
<coordinates>35.21138319,32.10423611,0 </coordinates>
</Point>
</Placemark>
<Placemark>
<name>TP-LINK_ADD150</name>
<description>Name: <b>TP-LINK_ADD150</b><br/>Timestamp (UTC): <b>1512284028000</b><br/>Date: <b>2017-12-03 06:53:48 </b><br/>BSSID: <b>74:ea:3a:ad:d1:50</b><br/>Capabilities: <b>[WPS][ESS]</b><br/>AccuracyMeters: <b>3</b><br/></description>
<styleUrl>#green</styleUrl>
<TimeStamp><when>2017-12-03T06:53:48Z</when></TimeStamp>
<Point>
<coordinates>35.20975804,32.10457483,0 </coordinates>
</Point>
</Placemark>
<Placemark>
<name>Ariel_University</name>
<description>Name: <b>Ariel_University</b><br/>Timestamp (UTC): <b>1512284115000</b><br/>Date: <b>2017-12-03 06:55:15 </b><br/>BSSID: <b>1c:b9:c4:16:06:bc</b><br/>Capabilities: <b>[ESS]</b><br/>AccuracyMeters: <b>3</b><br/></description>
<styleUrl>#green</styleUrl>
<TimeStamp><when>2017-12-03T06:55:15Z</when></TimeStamp>
<Point>
<coordinates>35.20978446,32.10305306,0 </coordinates>
</Point>
</Placemark>
<Placemark>
<name>Ariel_University</name>
<description>Name: <b>Ariel_University</b><br/>Timestamp (UTC): <b>1512284064000</b><br/>Date: <b>2017-12-03 06:54:24 </b><br/>BSSID: <b>8c:0c:90:2e:16:88</b><br/>Capabilities: <b>[ESS]</b><br/>AccuracyMeters: <b>4</b><br/></description>
<styleUrl>#green</styleUrl>
<TimeStamp><when>2017-12-03T06:54:24Z</when></TimeStamp>
<Point>
<coordinates>35.20871988,32.10301827,0 </coordinates>
</Point>
</Placemark>
<Placemark>
<name>Ariel_University</name>
<description>Name: <b>Ariel_University</b><br/>Timestamp (UTC): <b>1512284073000</b><br/>Date: <b>2017-12-03 06:54:33 </b><br/>BSSID: <b>1c:b9:c4:14:33:cc</b><br/>Capabilities: <b>[ESS]</b><br/>AccuracyMeters: <b>3</b><br/></description>
<styleUrl>#green</styleUrl>
<TimeStamp><when>2017-12-03T06:54:33Z</when></TimeStamp>
<Point>
<coordinates>35.20884914,32.10244119,0 </coordinates>
</Point>
</Placemark>
<Placemark>
<name>Guest</name>
<description>Name: <b>Guest</b><br/>Timestamp (UTC): <b>1512284019000</b><br/>Date: <b>2017-12-03 06:53:39 </b><br/>BSSID: <b>a2:6c:ac:a0:7b:4d</b><br/>Capabilities: <b>[WPA2-PSK-CCMP-preauth][ESS]</b><br/>AccuracyMeters: <b>3</b><br/></description>
<styleUrl>#red</styleUrl>
<TimeStamp><when>2017-12-03T06:53:39Z</when></TimeStamp>
<Point>
<coordinates>35.21025994,32.1048406,0 </coordinates>
</Point>
</Placemark>
<Placemark>
<name>Ariel_University</name>
<description>Name: <b>Ariel_University</b><br/>Timestamp (UTC): <b>1512284115000</b><br/>Date: <b>2017-12-03 06:55:15 </b><br/>BSSID: <b>1c:b9:c4:15:ec:38</b><br/>Capabilities: <b>[ESS]</b><br/>AccuracyMeters: <b>3</b><br/></description>
<styleUrl>#green</styleUrl>
<TimeStamp><when>2017-12-03T06:55:15Z</when></TimeStamp>
<Point>
<coordinates>35.20978446,32.10305306,0 </coordinates>
</Point>
</Placemark>
<Placemark>
<name>Ariel_University</name>
<description>Name: <b>Ariel_University</b><br/>Timestamp (UTC): <b>1512284091000</b><br/>Date: <b>2017-12-03 06:54:51 </b><br/>BSSID: <b>1c:b9:c4:14:2f:68</b><br/>Capabilities: <b>[ESS]</b><br/>AccuracyMeters: <b>3</b><br/></description>
<styleUrl>#green</styleUrl>
<TimeStamp><when>2017-12-03T06:54:51Z</when></TimeStamp>
<Point>
<coordinates>35.20998301,32.10212708,0 </coordinates>
</Point>
</Placemark>
<Placemark>
<name>Ariel_University</name>
<description>Name: <b>Ariel_University</b><br/>Timestamp (UTC): <b>1512284111000</b><br/>Date: <b>2017-12-03 06:55:11 </b><br/>BSSID: <b>1c:b9:c4:14:2b:88</b><br/>Capabilities: <b>[ESS]</b><br/>AccuracyMeters: <b>4</b><br/></description>
<styleUrl>#green</styleUrl>
<TimeStamp><when>2017-12-03T06:55:11Z</when></TimeStamp>
<Point>
<coordinates>35.20983303,32.10290524,0 </coordinates>
</Point>
</Placemark>
<Placemark>
<name>Ariel_University</name>
<description>Name: <b>Ariel_University</b><br/>Timestamp (UTC): <b>1512284168000</b><br/>Date: <b>2017-12-03 06:56:08 </b><br/>BSSID: <b>1c:b9:c4:16:05:78</b><br/>Capabilities: <b>[ESS]</b><br/>AccuracyMeters: <b>3</b><br/></description>
<styleUrl>#green</styleUrl>
<TimeStamp><when>2017-12-03T06:56:08Z</when></TimeStamp>
<Point>
<coordinates>35.21135337,32.10488619,0 </coordinates>
</Point>
</Placemark>
<Placemark>
<name>Ariel_University</name>
<description>Name: <b>Ariel_University</b><br/>Timestamp (UTC): <b>1512284088000</b><br/>Date: <b>2017-12-03 06:54:48 </b><br/>BSSID: <b>ec:8c:a2:26:b1:78</b><br/>Capabilities: <b>[ESS]</b><br/>AccuracyMeters: <b>4</b><br/></description>
<styleUrl>#green</styleUrl>
<TimeStamp><when>2017-12-03T06:54:48Z</when></TimeStamp>
<Point>
<coordinates>35.2098381,32.10199722,0 </coordinates>
</Point>
</Placemark>
<Placemark>
<name>Ariel_University</name>
<description>Name: <b>Ariel_University</b><br/>Timestamp (UTC): <b>1512284022000</b><br/>Date: <b>2017-12-03 06:53:42 </b><br/>BSSID: <b>1c:b9:c4:16:05:78</b><br/>Capabilities: <b>[ESS]</b><br/>AccuracyMeters: <b>3</b><br/></description>
<styleUrl>#green</styleUrl>
<TimeStamp><when>2017-12-03T06:53:42Z</when></TimeStamp>
<Point>
<coordinates>35.21007474,32.10475343,0 </coordinates>
</Point>
</Placemark>
<Placemark>
<name>magneto</name>
<description>Name: <b>magneto</b><br/>Timestamp (UTC): <b>1512284043000</b><br/>Date: <b>2017-12-03 06:54:03 </b><br/>BSSID: <b>b2:6c:ac:a0:7b:4d</b><br/>Capabilities: <b>[WPA2-PSK-CCMP-preauth][ESS]</b><br/>AccuracyMeters: <b>3</b><br/></description>
<styleUrl>#red</styleUrl>
<TimeStamp><when>2017-12-03T06:54:03Z</when></TimeStamp>
<Point>
<coordinates>35.20902709,32.10406321,0 </coordinates>
</Point>
</Placemark>
<Placemark>
<name>Ariel_University</name>
<description>Name: <b>Ariel_University</b><br/>Timestamp (UTC): <b>1512284165000</b><br/>Date: <b>2017-12-03 06:56:05 </b><br/>BSSID: <b>1c:b9:c4:15:44:58</b><br/>Capabilities: <b>[ESS]</b><br/>AccuracyMeters: <b>3</b><br/></description>
<styleUrl>#green</styleUrl>
<TimeStamp><when>2017-12-03T06:56:05Z</when></TimeStamp>
<Point>
<coordinates>35.21137457,32.10487501,0 </coordinates>
</Point>
</Placemark>
<Placemark>
<name>Ariel_University</name>
<description>Name: <b>Ariel_University</b><br/>Timestamp (UTC): <b>1512284076000</b><br/>Date: <b>2017-12-03 06:54:36 </b><br/>BSSID: <b>1c:b9:c4:14:2b:dc</b><br/>Capabilities: <b>[ESS]</b><br/>AccuracyMeters: <b>4</b><br/></description>
<styleUrl>#green</styleUrl>
<TimeStamp><when>2017-12-03T06:54:36Z</when></TimeStamp>
<Point>
<coordinates>35.20894955,32.1022576,0 </coordinates>
</Point>
</Placemark>
<Placemark>
<name>Ariel_University</name>
<description>Name: <b>Ariel_University</b><br/>Timestamp (UTC): <b>1512284025000</b><br/>Date: <b>2017-12-03 06:53:45 </b><br/>BSSID: <b>1c:b9:c4:15:25:48</b><br/>Capabilities: <b>[ESS]</b><br/>AccuracyMeters: <b>3</b><br/></description>
<styleUrl>#green</styleUrl>
<TimeStamp><when>2017-12-03T06:53:45Z</when></TimeStamp>
<Point>
<coordinates>35.20990936,32.10466627,0 </coordinates>
</Point>
</Placemark>
<Placemark>
<name>Ariel_University</name>
<description>Name: <b>Ariel_University</b><br/>Timestamp (UTC): <b>1512284130000</b><br/>Date: <b>2017-12-03 06:55:30 </b><br/>BSSID: <b>1c:b9:c4:16:06:bc</b><br/>Capabilities: <b>[ESS]</b><br/>AccuracyMeters: <b>3</b><br/></description>
<styleUrl>#green</styleUrl>
<TimeStamp><when>2017-12-03T06:55:30Z</when></TimeStamp>
<Point>
<coordinates>35.21019984,32.10379261,0 </coordinates>
</Point>
</Placemark>
<Placemark>
<name>Ariel_University</name>
<description>Name: <b>Ariel_University</b><br/>Timestamp (UTC): <b>1512284140000</b><br/>Date: <b>2017-12-03 06:55:40 </b><br/>BSSID: <b>1c:b9:c4:16:ed:48</b><br/>Capabilities: <b>[ESS]</b><br/>AccuracyMeters: <b>3</b><br/></description>
<styleUrl>#green</styleUrl>
<TimeStamp><when>2017-12-03T06:55:40Z</when></TimeStamp>
<Point>
<coordinates>35.21091349,32.10412387,0 </coordinates>
</Point>
</Placemark>
<Placemark>
<name>Ariel_University</name>
<description>Name: <b>Ariel_University</b><br/>Timestamp (UTC): <b>1512284120000</b><br/>Date: <b>2017-12-03 06:55:20 </b><br/>BSSID: <b>1c:b9:c4:12:90:b8</b><br/>Capabilities: <b>[ESS]</b><br/>AccuracyMeters: <b>3</b><br/></description>
<styleUrl>#green</styleUrl>
<TimeStamp><when>2017-12-03T06:55:20Z</when></TimeStamp>
<Point>
<coordinates>35.20979335,32.10330416,0 </coordinates>
</Point>
</Placemark>
<Placemark>
<name>Ariel_University</name>
<description>Name: <b>Ariel_University</b><br/>Timestamp (UTC): <b>1512284019000</b><br/>Date: <b>2017-12-03 06:53:39 </b><br/>BSSID: <b>1c:b9:c4:14:2b:c8</b><br/>Capabilities: <b>[ESS]</b><br/>AccuracyMeters: <b>3</b><br/></description>
<styleUrl>#green</styleUrl>
<TimeStamp><when>2017-12-03T06:53:39Z</when></TimeStamp>
<Point>
<coordinates>35.21025994,32.1048406,0 </coordinates>
</Point>
</Placemark>
<Placemark>
<name>Ariel_University</name>
<description>Name: <b>Ariel_University</b><br/>Timestamp (UTC): <b>1512284055000</b><br/>Date: <b>2017-12-03 06:54:15 </b><br/>BSSID: <b>1c:b9:c4:16:d2:88</b><br/>Capabilities: <b>[ESS]</b><br/>AccuracyMeters: <b>3</b><br/></description>
<styleUrl>#green</styleUrl>
<TimeStamp><when>2017-12-03T06:54:15Z</when></TimeStamp>
<Point>
<coordinates>35.20875946,32.10346795,0 </coordinates>
</Point>
</Placemark>
<Placemark>
<name>Ariel_University</name>
<description>Name: <b>Ariel_University</b><br/>Timestamp (UTC): <b>1512284082000</b><br/>Date: <b>2017-12-03 06:54:42 </b><br/>BSSID: <b>1c:b9:c4:15:1e:68</b><br/>Capabilities: <b>[ESS]</b><br/>AccuracyMeters: <b>3</b><br/></description>
<styleUrl>#green</styleUrl>
<TimeStamp><when>2017-12-03T06:54:42Z</when></TimeStamp>
<Point>
<coordinates>35.20935702,32.1020322,0 </coordinates>
</Point>
</Placemark>
<Placemark>
<name>shapedo</name>
<description>Name: <b>shapedo</b><br/>Timestamp (UTC): <b>1512284040000</b><br/>Date: <b>2017-12-03 06:54 </b><br/>BSSID: <b>c2:6c:ac:9f:fb:1f</b><br/>Capabilities: <b>[WPA2-PSK-CCMP-preauth][ESS]</b><br/>AccuracyMeters: <b>3</b><br/></description>
<styleUrl>#red</styleUrl>
<TimeStamp><when>2017-12-03T06:54Z</when></TimeStamp>
<Point>
<coordinates>35.20917533,32.10419361,0 </coordinates>
</Point>
</Placemark>
<Placemark>
<name>Ariel_University</name>
<description>Name: <b>Ariel_University</b><br/>Timestamp (UTC): <b>1512284043000</b><br/>Date: <b>2017-12-03 06:54:03 </b><br/>BSSID: <b>1c:b9:c4:16:05:38</b><br/>Capabilities: <b>[ESS]</b><br/>AccuracyMeters: <b>3</b><br/></description>
<styleUrl>#green</styleUrl>
<TimeStamp><when>2017-12-03T06:54:03Z</when></TimeStamp>
<Point>
<coordinates>35.20902709,32.10406321,0 </coordinates>
</Point>
</Placemark>
<Placemark>
<name>Ariel_University</name>
<description>Name: <b>Ariel_University</b><br/>Timestamp (UTC): <b>1512284061000</b><br/>Date: <b>2017-12-03 06:54:21 </b><br/>BSSID: <b>ec:8c:a2:26:d3:68</b><br/>Capabilities: <b>[ESS]</b><br/>AccuracyMeters: <b>4</b><br/></description>
<styleUrl>#green</styleUrl>
<TimeStamp><when>2017-12-03T06:54:21Z</when></TimeStamp>
<Point>
<coordinates>35.20873143,32.10318952,0 </coordinates>
</Point>
</Placemark>
<Placemark>
<name>Ariel_University</name>
<description>Name: <b>Ariel_University</b><br/>Timestamp (UTC): <b>1512284070000</b><br/>Date: <b>2017-12-03 06:54:30 </b><br/>BSSID: <b>1c:b9:c4:16:11:a8</b><br/>Capabilities: <b>[ESS]</b><br/>AccuracyMeters: <b>4</b><br/></description>
<styleUrl>#green</styleUrl>
<TimeStamp><when>2017-12-03T06:54:30Z</when></TimeStamp>
<Point>
<coordinates>35.20876629,32.10263124,0 </coordinates>
</Point>
</Placemark>
<Placemark>
<name>Ariel_University</name>
<description>Name: <b>Ariel_University</b><br/>Timestamp (UTC): <b>1512284076000</b><br/>Date: <b>2017-12-03 06:54:36 </b><br/>BSSID: <b>1c:b9:c4:14:2b:d8</b><br/>Capabilities: <b>[ESS]</b><br/>AccuracyMeters: <b>4</b><br/></description>
<styleUrl>#green</styleUrl>
<TimeStamp><when>2017-12-03T06:54:36Z</when></TimeStamp>
<Point>
<coordinates>35.20894955,32.1022576,0 </coordinates>
</Point>
</Placemark>
<Placemark>
<name>Ariel_University</name>
<description>Name: <b>Ariel_University</b><br/>Timestamp (UTC): <b>1512284082000</b><br/>Date: <b>2017-12-03 06:54:42 </b><br/>BSSID: <b>ec:8c:a2:08:94:1c</b><br/>Capabilities: <b>[ESS]</b><br/>AccuracyMeters: <b>3</b><br/></description>
<styleUrl>#green</styleUrl>
<TimeStamp><when>2017-12-03T06:54:42Z</when></TimeStamp>
<Point>
<coordinates>35.20935702,32.1020322,0 </coordinates>
</Point>
</Placemark>
<Placemark>
<name>Ariel_University</name>
<description>Name: <b>Ariel_University</b><br/>Timestamp (UTC): <b>1512284148000</b><br/>Date: <b>2017-12-03 06:55:48 </b><br/>BSSID: <b>1c:b9:c4:16:06:bc</b><br/>Capabilities: <b>[ESS]</b><br/>AccuracyMeters: <b>3</b><br/></description>
<styleUrl>#green</styleUrl>
<TimeStamp><when>2017-12-03T06:55:48Z</when></TimeStamp>
<Point>
<coordinates>35.21138319,32.10423611,0 </coordinates>
</Point>
</Placemark>
<Placemark>
<name>Ariel_University</name>
<description>Name: <b>Ariel_University</b><br/>Timestamp (UTC): <b>1512284043000</b><br/>Date: <b>2017-12-03 06:54:03 </b><br/>BSSID: <b>8c:0c:90:2e:16:88</b><br/>Capabilities: <b>[ESS]</b><br/>AccuracyMeters: <b>3</b><br/></description>
<styleUrl>#green</styleUrl>
<TimeStamp><when>2017-12-03T06:54:03Z</when></TimeStamp>
<Point>
<coordinates>35.20902709,32.10406321,0 </coordinates>
</Point>
</Placemark>
<Placemark>
<name>Ariel_University</name>
<description>Name: <b>Ariel_University</b><br/>Timestamp (UTC): <b>1512284120000</b><br/>Date: <b>2017-12-03 06:55:20 </b><br/>BSSID: <b>1c:b9:c4:16:ed:38</b><br/>Capabilities: <b>[ESS]</b><br/>AccuracyMeters: <b>3</b><br/></description>
<styleUrl>#green</styleUrl>
<TimeStamp><when>2017-12-03T06:55:20Z</when></TimeStamp>
<Point>
<coordinates>35.20979335,32.10330416,0 </coordinates>
</Point>
</Placemark>
<Placemark>
<name>Ariel_University</name>
<description>Name: <b>Ariel_University</b><br/>Timestamp (UTC): <b>1512284079000</b><br/>Date: <b>2017-12-03 06:54:39 </b><br/>BSSID: <b>1c:b9:c4:12:90:b8</b><br/>Capabilities: <b>[ESS]</b><br/>AccuracyMeters: <b>4</b><br/></description>
<styleUrl>#green</styleUrl>
<TimeStamp><when>2017-12-03T06:54:39Z</when></TimeStamp>
<Point>
<coordinates>35.20912829,32.10212198,0 </coordinates>
</Point>
</Placemark>
<Placemark>
<name>Ariel_University</name>
<description>Name: <b>Ariel_University</b><br/>Timestamp (UTC): <b>1512284115000</b><br/>Date: <b>2017-12-03 06:55:15 </b><br/>BSSID: <b>1c:b9:c4:15:1e:68</b><br/>Capabilities: <b>[ESS]</b><br/>AccuracyMeters: <b>3</b><br/></description>
<styleUrl>#green</styleUrl>
<TimeStamp><when>2017-12-03T06:55:15Z</when></TimeStamp>
<Point>
<coordinates>35.20978446,32.10305306,0 </coordinates>
</Point>
</Placemark>
<Placemark>
<name>2.4V1</name>
<description>Name: <b>2.4V1</b><br/>Timestamp (UTC): <b>1512284115000</b><br/>Date: <b>2017-12-03 06:55:15 </b><br/>BSSID: <b>40:a5:ef:7a:17:f2</b><br/>Capabilities: <b>[WPA2-PSK-CCMP][WPS][ESS]</b><br/>AccuracyMeters: <b>3</b><br/></description>
<styleUrl>#red</styleUrl>
<TimeStamp><when>2017-12-03T06:55:15Z</when></TimeStamp>
<Point>
<coordinates>35.20978446,32.10305306,0 </coordinates>
</Point>
</Placemark>
<Placemark>
<name>yosh</name>
<description>Name: <b>yosh</b><br/>Timestamp (UTC): <b>1512284151000</b><br/>Date: <b>2017-12-03 06:55:51 </b><br/>BSSID: <b>00:11:6b:11:7e:0c</b><br/>Capabilities: <b>[ESS]</b><br/>AccuracyMeters: <b>4</b><br/></description>
<styleUrl>#green</styleUrl>
<TimeStamp><when>2017-12-03T06:55:51Z</when></TimeStamp>
<Point>
<coordinates>35.21150642,32.10434812,0 </coordinates>
</Point>
</Placemark>
<Placemark>
<name>Ariel_University</name>
<description>Name: <b>Ariel_University</b><br/>Timestamp (UTC): <b>1512284130000</b><br/>Date: <b>2017-12-03 06:55:30 </b><br/>BSSID: <b>1c:b9:c4:16:06:b8</b><br/>Capabilities: <b>[ESS]</b><br/>AccuracyMeters: <b>3</b><br/></description>
<styleUrl>#green</styleUrl>
<TimeStamp><when>2017-12-03T06:55:30Z</when></TimeStamp>
<Point>
<coordinates>35.21019984,32.10379261,0 </coordinates>
</Point>
</Placemark>
<Placemark>
<name>Ariel_University</name>
<description>Name: <b>Ariel_University</b><br/>Timestamp (UTC): <b>1512284043000</b><br/>Date: <b>2017-12-03 06:54:03 </b><br/>BSSID: <b>1c:b9:c4:16:cc:d8</b><br/>Capabilities: <b>[ESS]</b><br/>AccuracyMeters: <b>3</b><br/></description>
<styleUrl>#green</styleUrl>
<TimeStamp><when>2017-12-03T06:54:03Z</when></TimeStamp>
<Point>
<coordinates>35.20902709,32.10406321,0 </coordinates>
</Point>
</Placemark>
<Placemark>
<name>Ariel_University</name>
<description>Name: <b>Ariel_University</b><br/>Timestamp (UTC): <b>1512284052000</b><br/>Date: <b>2017-12-03 06:54:12 </b><br/>BSSID: <b>ec:8c:a2:08:78:c8</b><br/>Capabilities: <b>[ESS]</b><br/>AccuracyMeters: <b>3</b><br/></description>
<styleUrl>#green</styleUrl>
<TimeStamp><when>2017-12-03T06:54:12Z</when></TimeStamp>
<Point>
<coordinates>35.20878096,32.10359721,0 </coordinates>
</Point>
</Placemark>
<Placemark>
<name>Ariel_University</name>
<description>Name: <b>Ariel_University</b><br/>Timestamp (UTC): <b>1512284142000</b><br/>Date: <b>2017-12-03 06:55:42 </b><br/>BSSID: <b>1c:b9:c4:15:fd:48</b><br/>Capabilities: <b>[ESS]</b><br/>AccuracyMeters: <b>3</b><br/></description>
<styleUrl>#green</styleUrl>
<TimeStamp><when>2017-12-03T06:55:42Z</when></TimeStamp>
<Point>
<coordinates>35.21101715,32.10415215,0 </coordinates>
</Point>
</Placemark>
<Placemark>
<name>IT-MNG</name>
<description>Name: <b>IT-MNG</b><br/>Timestamp (UTC): <b>1512284162000</b><br/>Date: <b>2017-12-03 06:56:02 </b><br/>BSSID: <b>1c:b9:c4:15:fd:e8</b><br/>Capabilities: <b>[WPA2-PSK-CCMP+TKIP][ESS]</b><br/>AccuracyMeters: <b>3</b><br/></description>
<styleUrl>#red</styleUrl>
<TimeStamp><when>2017-12-03T06:56:02Z</when></TimeStamp>
<Point>
<coordinates>35.2114539,32.10481492,0 </coordinates>
</Point>
</Placemark>
<Placemark>
<name>Ariel_University</name>
<description>Name: <b>Ariel_University</b><br/>Timestamp (UTC): <b>1512284111000</b><br/>Date: <b>2017-12-03 06:55:11 </b><br/>BSSID: <b>1c:b9:c4:14:30:38</b><br/>Capabilities: <b>[ESS]</b><br/>AccuracyMeters: <b>4</b><br/></description>
<styleUrl>#green</styleUrl>
<TimeStamp><when>2017-12-03T06:55:11Z</when></TimeStamp>
<Point>
<coordinates>35.20983303,32.10290524,0 </coordinates>
</Point>
</Placemark>
<Placemark>
<name>Ariel_University</name>
<description>Name: <b>Ariel_University</b><br/>Timestamp (UTC): <b>1512284043000</b><br/>Date: <b>2017-12-03 06:54:03 </b><br/>BSSID: <b>1c:b9:c4:16:28:e8</b><br/>Capabilities: <b>[ESS]</b><br/>AccuracyMeters: <b>3</b><br/></description>
<styleUrl>#green</styleUrl>
<TimeStamp><when>2017-12-03T06:54:03Z</when></TimeStamp>
<Point>
<coordinates>35.20902709,32.10406321,0 </coordinates>
</Point>
</Placemark>
<Placemark>
<name></name>
<description>Name: <b></b><br/>Timestamp (UTC): <b>1512284025000</b><br/>Date: <b>2017-12-03 06:53:45 </b><br/>BSSID: <b>1c:b9:c4:96:05:37</b><br/>Capabilities: <b>[WPA2-PSK-CCMP][ESS]</b><br/>AccuracyMeters: <b>3</b><br/></description>
<styleUrl>#red</styleUrl>
<TimeStamp><when>2017-12-03T06:53:45Z</when></TimeStamp>
<Point>
<coordinates>35.20990936,32.10466627,0 </coordinates>
</Point>
</Placemark>
<Placemark>
<name>Ariel_University</name>
<description>Name: <b>Ariel_University</b><br/>Timestamp (UTC): <b>1512284151000</b><br/>Date: <b>2017-12-03 06:55:51 </b><br/>BSSID: <b>1c:b9:c4:15:ed:48</b><br/>Capabilities: <b>[ESS]</b><br/>AccuracyMeters: <b>4</b><br/></description>
<styleUrl>#green</styleUrl>
<TimeStamp><when>2017-12-03T06:55:51Z</when></TimeStamp>
<Point>
<coordinates>35.21150642,32.10434812,0 </coordinates>
</Point>
</Placemark>
<Placemark>
<name>Ariel_University</name>
<description>Name: <b>Ariel_University</b><br/>Timestamp (UTC): <b>1512284130000</b><br/>Date: <b>2017-12-03 06:55:30 </b><br/>BSSID: <b>1c:b9:c4:15:1c:b8</b><br/>Capabilities: <b>[ESS]</b><br/>AccuracyMeters: <b>3</b><br/></description>
<styleUrl>#green</styleUrl>
<TimeStamp><when>2017-12-03T06:55:30Z</when></TimeStamp>
<Point>
<coordinates>35.21019984,32.10379261,0 </coordinates>
</Point>
</Placemark>
<Placemark>
<name>Ariel_University</name>
<description>Name: <b>Ariel_University</b><br/>Timestamp (UTC): <b>1512284067000</b><br/>Date: <b>2017-12-03 06:54:27 </b><br/>BSSID: <b>ec:8c:a2:08:78:cc</b><br/>Capabilities: <b>[ESS]</b><br/>AccuracyMeters: <b>3</b><br/></description>
<styleUrl>#green</styleUrl>
<TimeStamp><when>2017-12-03T06:54:27Z</when></TimeStamp>
<Point>
<coordinates>35.20871899,32.10282362,0 </coordinates>
</Point>
</Placemark>
<Placemark>
<name>Ariel_University</name>
<description>Name: <b>Ariel_University</b><br/>Timestamp (UTC): <b>1512284085000</b><br/>Date: <b>2017-12-03 06:54:45 </b><br/>BSSID: <b>1c:b9:c4:15:3a:38</b><br/>Capabilities: <b>[ESS]</b><br/>AccuracyMeters: <b>3</b><br/></description>
<styleUrl>#green</styleUrl>
<TimeStamp><when>2017-12-03T06:54:45Z</when></TimeStamp>
<Point>
<coordinates>35.20960153,32.10196459,0 </coordinates>
</Point>
</Placemark>
<Placemark>
<name>Ariel_University</name>
<description>Name: <b>Ariel_University</b><br/>Timestamp (UTC): <b>1512284022000</b><br/>Date: <b>2017-12-03 06:53:42 </b><br/>BSSID: <b>1c:b9:c4:16:05:38</b><br/>Capabilities: <b>[ESS]</b><br/>AccuracyMeters: <b>3</b><br/></description>
<styleUrl>#green</styleUrl>
<TimeStamp><when>2017-12-03T06:53:42Z</when></TimeStamp>
<Point>
<coordinates>35.21007474,32.10475343,0 </coordinates>
</Point>
</Placemark>
<Placemark>
<name>CliClap</name>
<description>Name: <b>CliClap</b><br/>Timestamp (UTC): <b>1512284031000</b><br/>Date: <b>2017-12-03 06:53:51 </b><br/>BSSID: <b>90:6c:ac:9f:f1:c5</b><br/>Capabilities: <b>[WPA2-PSK-CCMP-preauth][ESS]</b><br/>AccuracyMeters: <b>3</b><br/></description>
<styleUrl>#red</styleUrl>
<TimeStamp><when>2017-12-03T06:53:51Z</when></TimeStamp>
<Point>
<coordinates>35.20960715,32.10448173,0 </coordinates>
</Point>
</Placemark>
<Placemark>
<name>Ariel_University</name>
<description>Name: <b>Ariel_University</b><br/>Timestamp (UTC): <b>1512284073000</b><br/>Date: <b>2017-12-03 06:54:33 </b><br/>BSSID: <b>1c:b9:c4:16:f1:98</b><br/>Capabilities: <b>[ESS]</b><br/>AccuracyMeters: <b>3</b><br/></description>
<styleUrl>#green</styleUrl>
<TimeStamp><when>2017-12-03T06:54:33Z</when></TimeStamp>
<Point>
<coordinates>35.20884914,32.10244119,0 </coordinates>
</Point>
</Placemark>
<Placemark>
<name>Bezeq Free</name>
<description>Name: <b>Bezeq Free</b><br/>Timestamp (UTC): <b>1512284076000</b><br/>Date: <b>2017-12-03 06:54:36 </b><br/>BSSID: <b>62:ab:1b:60:b4:cb</b><br/>Capabilities: <b>[WPA2-PSK-CCMP][ESS]</b><br/>AccuracyMeters: <b>4</b><br/></description>
<styleUrl>#red</styleUrl>
<TimeStamp><when>2017-12-03T06:54:36Z</when></TimeStamp>
<Point>
<coordinates>35.20894955,32.1022576,0 </coordinates>
</Point>
</Placemark>
<Placemark>
<name>Ariel_University</name>
<description>Name: <b>Ariel_University</b><br/>Timestamp (UTC): <b>1512284022000</b><br/>Date: <b>2017-12-03 06:53:42 </b><br/>BSSID: <b>1c:b9:c4:15:44:58</b><br/>Capabilities: <b>[ESS]</b><br/>AccuracyMeters: <b>3</b><br/></description>
<styleUrl>#green</styleUrl>
<TimeStamp><when>2017-12-03T06:53:42Z</when></TimeStamp>
<Point>
<coordinates>35.21007474,32.10475343,0 </coordinates>
</Point>
</Placemark>
<Placemark>
<name>Ariel_University</name>
<description>Name: <b>Ariel_University</b><br/>Timestamp (UTC): <b>1512284061000</b><br/>Date: <b>2017-12-03 06:54:21 </b><br/>BSSID: <b>8c:0c:90:2d:75:e8</b><br/>Capabilities: <b>[ESS]</b><br/>AccuracyMeters: <b>4</b><br/></description>
<styleUrl>#green</styleUrl>
<TimeStamp><when>2017-12-03T06:54:21Z</when></TimeStamp>
<Point>
<coordinates>35.20873143,32.10318952,0 </coordinates>
</Point>
</Placemark>
<Placemark>
<name>lab_6.1.3</name>
<description>Name: <b>lab_6.1.3</b><br/>Timestamp (UTC): <b>1512284079000</b><br/>Date: <b>2017-12-03 06:54:39 </b><br/>BSSID: <b>c4:12:f5:f6:a0:18</b><br/>Capabilities: <b>[WPA2-PSK-CCMP][ESS]</b><br/>AccuracyMeters: <b>4</b><br/></description>
<styleUrl>#red</styleUrl>
<TimeStamp><when>2017-12-03T06:54:39Z</when></TimeStamp>
<Point>
<coordinates>35.20912829,32.10212198,0 </coordinates>
</Point>
</Placemark>
<Placemark>
<name>036518749</name>
<description>Name: <b>036518749</b><br/>Timestamp (UTC): <b>1512284088000</b><br/>Date: <b>2017-12-03 06:54:48 </b><br/>BSSID: <b>a0:ab:1b:60:b4:ca</b><br/>Capabilities: <b>[WPA2-PSK-CCMP][ESS]</b><br/>AccuracyMeters: <b>4</b><br/></description>
<styleUrl>#red</styleUrl>
<TimeStamp><when>2017-12-03T06:54:48Z</when></TimeStamp>
<Point>
<coordinates>35.2098381,32.10199722,0 </coordinates>
</Point>
</Placemark>
<Placemark>
<name>Ariel_University</name>
<description>Name: <b>Ariel_University</b><br/>Timestamp (UTC): <b>1512284070000</b><br/>Date: <b>2017-12-03 06:54:30 </b><br/>BSSID: <b>ec:8c:a2:26:b1:78</b><br/>Capabilities: <b>[ESS]</b><br/>AccuracyMeters: <b>4</b><br/></description>
<styleUrl>#green</styleUrl>
<TimeStamp><when>2017-12-03T06:54:30Z</when></TimeStamp>
<Point>
<coordinates>35.20876629,32.10263124,0 </coordinates>
</Point>
</Placemark>
<Placemark>
<name>Ariel_University</name>
<description>Name: <b>Ariel_University</b><br/>Timestamp (UTC): <b>1512284148000</b><br/>Date: <b>2017-12-03 06:55:48 </b><br/>BSSID: <b>24:79:2a:2c:5c:18</b><br/>Capabilities: <b>[ESS]</b><br/>AccuracyMeters: <b>3</b><br/></description>
<styleUrl>#green</styleUrl>
<TimeStamp><when>2017-12-03T06:55:48Z</when></TimeStamp>
<Point>
<coordinates>35.21138319,32.10423611,0 </coordinates>
</Point>
</Placemark>
<Placemark>
<name>Ariel_University</name>
<description>Name: <b>Ariel_University</b><br/>Timestamp (UTC): <b>1512284115000</b><br/>Date: <b>2017-12-03 06:55:15 </b><br/>BSSID: <b>1c:b9:c4:15:3a:38</b><br/>Capabilities: <b>[ESS]</b><br/>AccuracyMeters: <b>3</b><br/></description>
<styleUrl>#green</styleUrl>
<TimeStamp><when>2017-12-03T06:55:15Z</when></TimeStamp>
<Point>
<coordinates>35.20978446,32.10305306,0 </coordinates>
</Point>
</Placemark>
<Placemark>
<name></name>
<description>Name: <b></b><br/>Timestamp (UTC): <b>1512284148000</b><br/>Date: <b>2017-12-03 06:55:48 </b><br/>BSSID: <b>1c:b9:c4:95:41:77</b><br/>Capabilities: <b>[WPA2-PSK-CCMP][ESS]</b><br/>AccuracyMeters: <b>3</b><br/></description>
<styleUrl>#red</styleUrl>
<TimeStamp><when>2017-12-03T06:55:48Z</when></TimeStamp>
<Point>
<coordinates>35.21138319,32.10423611,0 </coordinates>
</Point>
</Placemark>
<Placemark>
<name>IT-MNG</name>
<description>Name: <b>IT-MNG</b><br/>Timestamp (UTC): <b>1512284160000</b><br/>Date: <b>2017-12-03 06:56 </b><br/>BSSID: <b>1c:b9:c4:16:cd:18</b><br/>Capabilities: <b>[WPA2-PSK-CCMP+TKIP][ESS]</b><br/>AccuracyMeters: <b>3</b><br/></description>
<styleUrl>#red</styleUrl>
<TimeStamp><when>2017-12-03T06:56Z</when></TimeStamp>
<Point>
<coordinates>35.2115156,32.10476714,0 </coordinates>
</Point>
</Placemark>
<Placemark>
<name>Ariel_University</name>
<description>Name: <b>Ariel_University</b><br/>Timestamp (UTC): <b>1512284058000</b><br/>Date: <b>2017-12-03 06:54:18 </b><br/>BSSID: <b>1c:b9:c4:16:f4:78</b><br/>Capabilities: <b>[ESS]</b><br/>AccuracyMeters: <b>4</b><br/></description>
<styleUrl>#green</styleUrl>
<TimeStamp><when>2017-12-03T06:54:18Z</when></TimeStamp>
<Point>
<coordinates>35.20874462,32.10333565,0 </coordinates>
</Point>
</Placemark>
<Placemark>
<name>Ariel_University</name>
<description>Name: <b>Ariel_University</b><br/>Timestamp (UTC): <b>1512284004000</b><br/>Date: <b>2017-12-03 06:53:24 </b><br/>BSSID: <b>1c:b9:c4:16:2d:e8</b><br/>Capabilities: <b>[ESS]</b><br/>AccuracyMeters: <b>3</b><br/></description>
<styleUrl>#green</styleUrl>
<TimeStamp><when>2017-12-03T06:53:24Z</when></TimeStamp>
<Point>
<coordinates>35.21107852,32.1050222,0 </coordinates>
</Point>
</Placemark>
<Placemark>
<name>Ariel_University</name>
<description>Name: <b>Ariel_University</b><br/>Timestamp (UTC): <b>1512284058000</b><br/>Date: <b>2017-12-03 06:54:18 </b><br/>BSSID: <b>1c:b9:c4:16:1d:78</b><br/>Capabilities: <b>[ESS]</b><br/>AccuracyMeters: <b>4</b><br/></description>
<styleUrl>#green</styleUrl>
<TimeStamp><when>2017-12-03T06:54:18Z</when></TimeStamp>
<Point>
<coordinates>35.20874462,32.10333565,0 </coordinates>
</Point>
</Placemark>
<Placemark>
<name>Ariel_University</name>
<description>Name: <b>Ariel_University</b><br/>Timestamp (UTC): <b>1512284088000</b><br/>Date: <b>2017-12-03 06:54:48 </b><br/>BSSID: <b>1c:b9:c4:16:11:a8</b><br/>Capabilities: <b>[ESS]</b><br/>AccuracyMeters: <b>4</b><br/></description>
<styleUrl>#green</styleUrl>
<TimeStamp><when>2017-12-03T06:54:48Z</when></TimeStamp>
<Point>
<coordinates>35.2098381,32.10199722,0 </coordinates>
</Point>
</Placemark>
<Placemark>
<name>Ariel_University</name>
<description>Name: <b>Ariel_University</b><br/>Timestamp (UTC): <b>1512284019000</b><br/>Date: <b>2017-12-03 06:53:39 </b><br/>BSSID: <b>1c:b9:c4:15:41:78</b><br/>Capabilities: <b>[ESS]</b><br/>AccuracyMeters: <b>3</b><br/></description>
<styleUrl>#green</styleUrl>
<TimeStamp><when>2017-12-03T06:53:39Z</when></TimeStamp>
<Point>
<coordinates>35.21025994,32.1048406,0 </coordinates>
</Point>
</Placemark>
<Placemark>
<name>Ariel_University</name>
<description>Name: <b>Ariel_University</b><br/>Timestamp (UTC): <b>1512284064000</b><br/>Date: <b>2017-12-03 06:54:24 </b><br/>BSSID: <b>1c:b9:c4:16:05:38</b><br/>Capabilities: <b>[ESS]</b><br/>AccuracyMeters: <b>4</b><br/></description>
<styleUrl>#green</styleUrl>
<TimeStamp><when>2017-12-03T06:54:24Z</when></TimeStamp>
<Point>
<coordinates>35.20871988,32.10301827,0 </coordinates>
</Point>
</Placemark>
<Placemark>
<name>Ariel_University</name>
<description>Name: <b>Ariel_University</b><br/>Timestamp (UTC): <b>1512284064000</b><br/>Date: <b>2017-12-03 06:54:24 </b><br/>BSSID: <b>1c:b9:c4:14:33:c8</b><br/>Capabilities: <b>[ESS]</b><br/>AccuracyMeters: <b>4</b><br/></description>
<styleUrl>#green</styleUrl>
<TimeStamp><when>2017-12-03T06:54:24Z</when></TimeStamp>
<Point>
<coordinates>35.20871988,32.10301827,0 </coordinates>
</Point>
</Placemark>
<Placemark>
<name>Ariel_University</name>
<description>Name: <b>Ariel_University</b><br/>Timestamp (UTC): <b>1512284130000</b><br/>Date: <b>2017-12-03 06:55:30 </b><br/>BSSID: <b>24:79:2a:2b:bd:88</b><br/>Capabilities: <b>[ESS]</b><br/>AccuracyMeters: <b>3</b><br/></description>
<styleUrl>#green</styleUrl>
<TimeStamp><when>2017-12-03T06:55:30Z</when></TimeStamp>
<Point>
<coordinates>35.21019984,32.10379261,0 </coordinates>
</Point>
</Placemark>
<Placemark>
<name>outsense</name>
<description>Name: <b>outsense</b><br/>Timestamp (UTC): <b>1512284022000</b><br/>Date: <b>2017-12-03 06:53:42 </b><br/>BSSID: <b>c2:6c:ac:a0:7b:4d</b><br/>Capabilities: <b>[WPA2-PSK-CCMP-preauth][ESS]</b><br/>AccuracyMeters: <b>3</b><br/></description>
<styleUrl>#red</styleUrl>
<TimeStamp><when>2017-12-03T06:53:42Z</when></TimeStamp>
<Point>
<coordinates>35.21007474,32.10475343,0 </coordinates>
</Point>
</Placemark>
<Placemark>
<name>Ariel_University</name>
<description>Name: <b>Ariel_University</b><br/>Timestamp (UTC): <b>1512284052000</b><br/>Date: <b>2017-12-03 06:54:12 </b><br/>BSSID: <b>1c:b9:c4:16:28:e8</b><br/>Capabilities: <b>[ESS]</b><br/>AccuracyMeters: <b>3</b><br/></description>
<styleUrl>#green</styleUrl>
<TimeStamp><when>2017-12-03T06:54:12Z</when></TimeStamp>
<Point>
<coordinates>35.20878096,32.10359721,0 </coordinates>
</Point>
</Placemark>
<Placemark>
<name>Ariel_University</name>
<description>Name: <b>Ariel_University</b><br/>Timestamp (UTC): <b>1512284016000</b><br/>Date: <b>2017-12-03 06:53:36 </b><br/>BSSID: <b>1c:b9:c4:15:44:88</b><br/>Capabilities: <b>[ESS]</b><br/>AccuracyMeters: <b>3</b><br/></description>
<styleUrl>#green</styleUrl>
<TimeStamp><when>2017-12-03T06:53:36Z</when></TimeStamp>
<Point>
<coordinates>35.21044203,32.10490203,0 </coordinates>
</Point>
</Placemark>
<Placemark>
<name>shapedo</name>
<description>Name: <b>shapedo</b><br/>Timestamp (UTC): <b>1512284019000</b><br/>Date: <b>2017-12-03 06:53:39 </b><br/>BSSID: <b>c2:6c:ac:9f:fb:1f</b><br/>Capabilities: <b>[WPA2-PSK-CCMP-preauth][ESS]</b><br/>AccuracyMeters: <b>3</b><br/></description>
<styleUrl>#red</styleUrl>
<TimeStamp><when>2017-12-03T06:53:39Z</when></TimeStamp>
<Point>
<coordinates>35.21025994,32.1048406,0 </coordinates>
</Point>
</Placemark>
<Placemark>
<name>Ariel_University</name>
<description>Name: <b>Ariel_University</b><br/>Timestamp (UTC): <b>1512284058000</b><br/>Date: <b>2017-12-03 06:54:18 </b><br/>BSSID: <b>34:8f:27:20:8c:18</b><br/>Capabilities: <b>[ESS]</b><br/>AccuracyMeters: <b>4</b><br/></description>
<styleUrl>#green</styleUrl>
<TimeStamp><when>2017-12-03T06:54:18Z</when></TimeStamp>
<Point>
<coordinates>35.20874462,32.10333565,0 </coordinates>
</Point>
</Placemark>
<Placemark>
<name>Ariel_University</name>
<description>Name: <b>Ariel_University</b><br/>Timestamp (UTC): <b>1512284079000</b><br/>Date: <b>2017-12-03 06:54:39 </b><br/>BSSID: <b>1c:b9:c4:16:f1:98</b><br/>Capabilities: <b>[ESS]</b><br/>AccuracyMeters: <b>4</b><br/></description>
<styleUrl>#green</styleUrl>
<TimeStamp><when>2017-12-03T06:54:39Z</when></TimeStamp>
<Point>
<coordinates>35.20912829,32.10212198,0 </coordinates>
</Point>
</Placemark>
</Folder><Folder>
<name>WigleWifi_20171201110209.csv</name>
<Placemark>
<name>Guymic</name>
<description>Name: <b>Guymic</b><br/>Timestamp (UTC): <b>1512118250000</b><br/>Date: <b>2017-12-01 08:50:50 </b><br/>BSSID: <b>14:ae:db:b7:99:2d</b><br/>Capabilities: <b>[WPA2-PSK-CCMP][ESS]</b><br/>AccuracyMeters: <b>4</b><br/></description>
<styleUrl>#red</styleUrl>
<TimeStamp><when>2017-12-01T08:50:50Z</when></TimeStamp>
<Point>
<coordinates>34.811205413681165,32.1704220061369,0 </coordinates>
</Point>
</Placemark>
<Placemark>
<name>Bezeq Free GA32E3</name>
<description>Name: <b>Bezeq Free GA32E3</b><br/>Timestamp (UTC): <b>1512118880000</b><br/>Date: <b>2017-12-01 09:01:20 </b><br/>BSSID: <b>52:b0:ce:ac:32:98</b><br/>Capabilities: <b>[ESS][BLE]</b><br/>AccuracyMeters: <b>3</b><br/></description>
<styleUrl>#green</styleUrl>
<TimeStamp><when>2017-12-01T09:01:20Z</when></TimeStamp>
<Point>
<coordinates>34.81383247774181,32.172359339129684,0 </coordinates>
</Point>
</Placemark>
<Placemark>
<name>Mevohot_1</name>
<description>Name: <b>Mevohot_1</b><br/>Timestamp (UTC): <b>1512118196000</b><br/>Date: <b>2017-12-01 08:49:56 </b><br/>BSSID: <b>20:0c:c8:1b:a2:48</b><br/>Capabilities: <b>[WPA2-PSK-CCMP][WPS][ESS][BLE]</b><br/>AccuracyMeters: <b>3</b><br/></description>
<styleUrl>#red</styleUrl>
<TimeStamp><when>2017-12-01T08:49:56Z</when></TimeStamp>
<Point>
<coordinates>34.81336124587249,32.172382685741084,0 </coordinates>
</Point>
</Placemark>
<Placemark>
<name>Bezeq Free</name>
<description>Name: <b>Bezeq Free</b><br/>Timestamp (UTC): <b>1512118682000</b><br/>Date: <b>2017-12-01 08:58:02 </b><br/>BSSID: <b>62:19:8f:46:9f:bf</b><br/>Capabilities: <b>[ESS]</b><br/>AccuracyMeters: <b>4</b><br/></description>
<styleUrl>#green</styleUrl>
<TimeStamp><when>2017-12-01T08:58:02Z</when></TimeStamp>
<Point>
<coordinates>34.813514176763185,32.17010132675571,0 </coordinates>
</Point>
</Placemark>
<Placemark>
<name>DIR-825-4f83</name>
<description>Name: <b>DIR-825-4f83</b><br/>Timestamp (UTC): <b>1512118205000</b><br/>Date: <b>2017-12-01 08:50:05 </b><br/>BSSID: <b>80:26:89:0d:4f:84</b><br/>Capabilities: <b>[WPA2-PSK-CCMP][WPS][ESS]</b><br/>AccuracyMeters: <b>3</b><br/></description>
<styleUrl>#red</styleUrl>
<TimeStamp><when>2017-12-01T08:50:05Z</when></TimeStamp>
<Point>
<coordinates>34.81291470608912,32.17244003231061,0 </coordinates>
</Point>
</Placemark>
<Placemark>
<name>Bezeq Free T00C36</name>
<description>Name: <b>Bezeq Free T00C36</b><br/>Timestamp (UTC): <b>1512118649000</b><br/>Date: <b>2017-12-01 08:57:29 </b><br/>BSSID: <b>5a:0c:c8:0f:21:90</b><br/>Capabilities: <b>[ESS][BLE]</b><br/>AccuracyMeters: <b>3</b><br/></description>
<styleUrl>#green</styleUrl>
<TimeStamp><when>2017-12-01T08:57:29Z</when></TimeStamp>
<Point>
<coordinates>34.81208525807686,32.16943682725201,0 </coordinates>
</Point>
</Placemark>
<Placemark>
<name>dlink-A09C</name>
<description>Name: <b>dlink-A09C</b><br/>Timestamp (UTC): <b>1512118271000</b><br/>Date: <b>2017-12-01 08:51:11 </b><br/>BSSID: <b>ac:f1:df:76:a0:9c</b><br/>Capabilities: <b>[WPA-PSK-CCMP+TKIP][WPA2-PSK-CCMP+TKIP][WPS][ESS]</b><br/>AccuracyMeters: <b>4</b><br/></description>
<styleUrl>#red</styleUrl>
<TimeStamp><when>2017-12-01T08:51:11Z</when></TimeStamp>
<Point>
<coordinates>34.81074036189685,32.16939849690679,0 </coordinates>
</Point>
</Placemark>
<Placemark>
<name>nina</name>
<description>Name: <b>nina</b><br/>Timestamp (UTC): <b>1512118790000</b><br/>Date: <b>2017-12-01 08:59:50 </b><br/>BSSID: <b>20:0c:c8:2b:2a:14</b><br/>Capabilities: <b>[WPA2-PSK-CCMP][WPS][ESS]</b><br/>AccuracyMeters: <b>3</b><br/></description>
<styleUrl>#red</styleUrl>
<TimeStamp><when>2017-12-01T08:59:50Z</when></TimeStamp>
<Point>
<coordinates>34.812198841457004,32.16964553962474,0 </coordinates>
</Point>
</Placemark>
<Placemark>
<name>tal</name>
<description>Name: <b>tal</b><br/>Timestamp (UTC): <b>1512118706000</b><br/>Date: <b>2017-12-01 08:58:26 </b><br/>BSSID: <b>90:8d:78:54:22:a2</b><br/>Capabilities: <b>[WPA2-PSK-CCMP][ESS][BLE]</b><br/>AccuracyMeters: <b>3</b><br/></description>
<styleUrl>#red</styleUrl>
<TimeStamp><when>2017-12-01T08:58:26Z</when></TimeStamp>
<Point>
<coordinates>34.813083395926654,32.17110086640514,0 </coordinates>
</Point>
</Placemark>
<Placemark>
<name>oved-main</name>
<description>Name: <b>oved-main</b><br/>Timestamp (UTC): <b>1512118481000</b><br/>Date: <b>2017-12-01 08:54:41 </b><br/>BSSID: <b>74:da:39:54:b8:1d</b><br/>Capabilities: <b>[WPA2-PSK-CCMP][ESS]</b><br/>AccuracyMeters: <b>4</b><br/></description>
<styleUrl>#red</styleUrl>
<TimeStamp><when>2017-12-01T08:54:41Z</when></TimeStamp>
<Point>
<coordinates>34.81072496254775,32.16935940800852,0 </coordinates>
</Point>
</Placemark>
<Placemark>
<name>klaiman</name>
<description>Name: <b>klaiman</b><br/>Timestamp (UTC): <b>1512118832000</b><br/>Date: <b>2017-12-01 09:00:32 </b><br/>BSSID: <b>a0:ab:1b:62:0d:fc</b><br/>Capabilities: <b>[WPA2-PSK-CCMP][ESS][BLE]</b><br/>AccuracyMeters: <b>3</b><br/></description>
<styleUrl>#red</styleUrl>
<TimeStamp><when>2017-12-01T09:00:32Z</when></TimeStamp>
<Point>
<coordinates>34.812397786519114,32.17005164614875,0 </coordinates>
</Point>
</Placemark>
<Placemark>
<name>ronkla2_5</name>
<description>Name: <b>ronkla2_5</b><br/>Timestamp (UTC): <b>1512118235000</b><br/>Date: <b>2017-12-01 08:50:35 </b><br/>BSSID: <b>3c:1e:04:07:2a:ff</b><br/>Capabilities: <b>[WPA2-PSK-CCMP][ESS][BLE]</b><br/>AccuracyMeters: <b>6</b><br/></description>
<styleUrl>#red</styleUrl>
<TimeStamp><when>2017-12-01T08:50:35Z</when></TimeStamp>
<Point>
<coordinates>34.81168874408503,32.17135803478369,0 </coordinates>
</Point>
</Placemark>
<Placemark>
<name>BezeqNGN_001489_2.4GHz_1</name>
<description>Name: <b>BezeqNGN_001489_2.4GHz_1</b><br/>Timestamp (UTC): <b>1512118463000</b><br/>Date: <b>2017-12-01 08:54:23 </b><br/>BSSID: <b>c0:a0:bb:cb:59:5b</b><br/>Capabilities: <b>[ESS][BLE]</b><br/>AccuracyMeters: <b>4</b><br/></description>
<styleUrl>#green</styleUrl>
<TimeStamp><when>2017-12-01T08:54:23Z</when></TimeStamp>
<Point>
<coordinates>34.81072496254775,32.16935940800852,0 </coordinates>
</Point>
</Placemark>
<Placemark>
<name>geller</name>
<description>Name: <b>geller</b><br/>Timestamp (UTC): <b>1512118784000</b><br/>Date: <b>2017-12-01 08:59:44 </b><br/>BSSID: <b>00:78:9e:fa:3b:62</b><br/>Capabilities: <b>[ESS]</b><br/>AccuracyMeters: <b>3</b><br/></description>
<styleUrl>#green</styleUrl>
<TimeStamp><when>2017-12-01T08:59:44Z</when></TimeStamp>
<Point>
<coordinates>34.8123924291015,32.17009177038523,0 </coordinates>
</Point>
</Placemark>
<Placemark>
<name>ELCHARAR_2.4</name>
<description>Name: <b>ELCHARAR_2.4</b><br/>Timestamp (UTC): <b>1512118268000</b><br/>Date: <b>2017-12-01 08:51:08 </b><br/>BSSID: <b>20:0c:c8:0f:21:93</b><br/>Capabilities: <b>[WPA2-PSK-CCMP][WPS][ESS][BLE]</b><br/>AccuracyMeters: <b>4</b><br/></description>
<styleUrl>#red</styleUrl>
<TimeStamp><when>2017-12-01T08:51:08Z</when></TimeStamp>
<Point>
<coordinates>34.81077184677352,32.169491346626565,0 </coordinates>
</Point>
</Placemark>
<Placemark>
<name>DIR-825-4f83</name>
<description>Name: <b>DIR-825-4f83</b><br/>Timestamp (UTC): <b>1512118865000</b><br/>Date: <b>2017-12-01 09:01:05 </b><br/>BSSID: <b>80:26:89:0d:4f:84</b><br/>Capabilities: <b>[WPA2-PSK-CCMP][WPS][ESS]</b><br/>AccuracyMeters: <b>3</b><br/></description>
<styleUrl>#red</styleUrl>
<TimeStamp><when>2017-12-01T09:01:05Z</when></TimeStamp>
<Point>
<coordinates>34.813008839731566,32.17221891605429,0 </coordinates>
</Point>
</Placemark>
<Placemark>
<name>Partner</name>
<description>Name: <b>Partner</b><br/>Timestamp (UTC): <b>1512118262000</b><br/>Date: <b>2017-12-01 08:51:02 </b><br/>BSSID: <b>42501_13111_7943940</b><br/>Capabilities: <b>UNKNOWN;il</b><br/>AccuracyMeters: <b>4</b><br/></description>
<styleUrl>#green</styleUrl>
<TimeStamp><when>2017-12-01T08:51:02Z</when></TimeStamp>
<Point>
<coordinates>34.810858045280845,32.169728418133815,0 </coordinates>
</Point>
</Placemark>
<Placemark>
<name>Baruch_2.4</name>
<description>Name: <b>Baruch_2.4</b><br/>Timestamp (UTC): <b>1512118754000</b><br/>Date: <b>2017-12-01 08:59:14 </b><br/>BSSID: <b>10:5a:f7:08:27:71</b><br/>Capabilities: <b>[WPA2-PSK-CCMP][ESS][BLE]</b><br/>AccuracyMeters: <b>3</b><br/></description>
<styleUrl>#red</styleUrl>
<TimeStamp><when>2017-12-01T08:59:14Z</when></TimeStamp>
<Point>
<coordinates>34.81367243117691,32.17094894909989,0 </coordinates>
</Point>
</Placemark>
<Placemark>
<name>UFI_UF230_B3F</name>
<description>Name: <b>UFI_UF230_B3F</b><br/>Timestamp (UTC): <b>1512118793000</b><br/>Date: <b>2017-12-01 08:59:53 </b><br/>BSSID: <b>00:0b:6c:4d:1b:3f</b><br/>Capabilities: <b>[WPA-PSK-CCMP][ESS]</b><br/>AccuracyMeters: <b>3</b><br/></description>
<styleUrl>#red</styleUrl>
<TimeStamp><when>2017-12-01T08:59:53Z</when></TimeStamp>
<Point>
<coordinates>34.81210224701049,32.169423702689954,0 </coordinates>
</Point>
</Placemark>
<Placemark>
<name>NIPPON_3687</name>
<description>Name: <b>NIPPON_3687</b><br/>Timestamp (UTC): <b>1512118211000</b><br/>Date: <b>2017-12-01 08:50:11 </b><br/>BSSID: <b>08:97:58:32:d2:98</b><br/>Capabilities: <b>[WPA-PSK-CCMP][WPS][ESS]</b><br/>AccuracyMeters: <b>6</b><br/></description>
<styleUrl>#red</styleUrl>
<TimeStamp><when>2017-12-01T08:50:11Z</when></TimeStamp>
<Point>
<coordinates>34.81247911919242,32.1725225188478,0 </coordinates>
</Point>
</Placemark>
<Placemark>
<name>HOTFiber-400D</name>
<description>Name: <b>HOTFiber-400D</b><br/>Timestamp (UTC): <b>1512118637000</b><br/>Date: <b>2017-12-01 08:57:17 </b><br/>BSSID: <b>b4:ee:b4:36:dd:b9</b><br/>Capabilities: <b>[WPA-PSK-CCMP+TKIP][WPA2-PSK-CCMP+TKIP][ESS][BLE]</b><br/>AccuracyMeters: <b>3</b><br/></description>
<styleUrl>#red</styleUrl>
<TimeStamp><when>2017-12-01T08:57:17Z</when></TimeStamp>
<Point>
<coordinates>34.81174537287164,32.16883769901991,0 </coordinates>
</Point>
</Placemark>
<Placemark>
<name>TP-LINK_E3CA</name>
<description>Name: <b>TP-LINK_E3CA</b><br/>Timestamp (UTC): <b>1512118730000</b><br/>Date: <b>2017-12-01 08:58:50 </b><br/>BSSID: <b>84:16:f9:e4:e3:ca</b><br/>Capabilities: <b>[WPA2-PSK-CCMP][WPS][ESS]</b><br/>AccuracyMeters: <b>3</b><br/></description>
<styleUrl>#red</styleUrl>
<TimeStamp><when>2017-12-01T08:58:50Z</when></TimeStamp>
<Point>
<coordinates>34.81278321992516,32.17026748685567,0 </coordinates>
</Point>
</Placemark>
<Placemark>
<name>nurit</name>
<description>Name: <b>nurit</b><br/>Timestamp (UTC): <b>1512118706000</b><br/>Date: <b>2017-12-01 08:58:26 </b><br/>BSSID: <b>a0:4f:d4:45:1f:a1</b><br/>Capabilities: <b>[WPA-PSK-CCMP+TKIP][WPA2-PSK-CCMP+TKIP][ESS][BLE]</b><br/>AccuracyMeters: <b>3</b><br/></description>
<styleUrl>#red</styleUrl>
<TimeStamp><when>2017-12-01T08:58:26Z</when></TimeStamp>
<Point>
<coordinates>34.813083395926654,32.17110086640514,0 </coordinates>
</Point>
</Placemark>
<Placemark>
<name>Partner</name>
<description>Name: <b>Partner</b><br/>Timestamp (UTC): <b>1512118784000</b><br/>Date: <b>2017-12-01 08:59:44 </b><br/>BSSID: <b>42501_13111_7943940</b><br/>Capabilities: <b>UNKNOWN;il</b><br/>AccuracyMeters: <b>3</b><br/></description>
<styleUrl>#green</styleUrl>
<TimeStamp><when>2017-12-01T08:59:44Z</when></TimeStamp>
<Point>
<coordinates>34.8123924291015,32.17009177038523,0 </coordinates>
</Point>
</Placemark>
<Placemark>
<name>sirocco_2.4o</name>
<description>Name: <b>sirocco_2.4o</b><br/>Timestamp (UTC): <b>1512118706000</b><br/>Date: <b>2017-12-01 08:58:26 </b><br/>BSSID: <b>c4:e9:84:83:1a:0a</b><br/>Capabilities: <b>[WPA-PSK-CCMP+TKIP][WPA2-PSK-CCMP+TKIP][ESS]</b><br/>AccuracyMeters: <b>3</b><br/></description>
<styleUrl>#red</styleUrl>
<TimeStamp><when>2017-12-01T08:58:26Z</when></TimeStamp>
<Point>
<coordinates>34.813083395926654,32.17110086640514,0 </coordinates>
</Point>
</Placemark>
<Placemark>
<name>Bezeq Free T00C36</name>
<description>Name: <b>Bezeq Free T00C36</b><br/>Timestamp (UTC): <b>1512118268000</b><br/>Date: <b>2017-12-01 08:51:08 </b><br/>BSSID: <b>5a:0c:c8:0f:21:90</b><br/>Capabilities: <b>[ESS][BLE]</b><br/>AccuracyMeters: <b>4</b><br/></description>
<styleUrl>#green</styleUrl>
<TimeStamp><when>2017-12-01T08:51:08Z</when></TimeStamp>
<Point>
<coordinates>34.81077184677352,32.169491346626565,0 </coordinates>
</Point>
</Placemark>
<Placemark>
<name>Helen.</name>
<description>Name: <b>Helen.</b><br/>Timestamp (UTC): <b>1512118220000</b><br/>Date: <b>2017-12-01 08:50:20 </b><br/>BSSID: <b>a0:ab:1b:57:cd:42</b><br/>Capabilities: <b>[WPA2-PSK-CCMP][ESS][BLE]</b><br/>AccuracyMeters: <b>4</b><br/></description>
<styleUrl>#red</styleUrl>
<TimeStamp><when>2017-12-01T08:50:20Z</when></TimeStamp>
<Point>
<coordinates>34.812042356198646,32.17229408710547,0 </coordinates>
</Point>
</Placemark>
<Placemark>
<name>spielman</name>
<description>Name: <b>spielman</b><br/>Timestamp (UTC): <b>1512118280000</b><br/>Date: <b>2017-12-01 08:51:20 </b><br/>BSSID: <b>7c:b7:33:2b:c4:52</b><br/>Capabilities: <b>[WPA-PSK-CCMP+TKIP][WPA2-PSK-CCMP+TKIP][ESS][BLE]</b><br/>AccuracyMeters: <b>4</b><br/></description>
<styleUrl>#red</styleUrl>
<TimeStamp><when>2017-12-01T08:51:20Z</when></TimeStamp>
<Point>
<coordinates>34.81072496254775,32.16935940800852,0 </coordinates>
</Point>
</Placemark>
<Placemark>
<name>Jamcanup</name>
<description>Name: <b>Jamcanup</b><br/>Timestamp (UTC): <b>1512118550000</b><br/>Date: <b>2017-12-01 08:55:50 </b><br/>BSSID: <b>74:da:38:c3:0d:6b</b><br/>Capabilities: <b>[WPA2-PSK-CCMP][WPS][ESS]</b><br/>AccuracyMeters: <b>4</b><br/></description>
<styleUrl>#red</styleUrl>
<TimeStamp><when>2017-12-01T08:55:50Z</when></TimeStamp>
<Point>
<coordinates>34.8106650271149,32.16917019230133,0 </coordinates>
</Point>
</Placemark>
<Placemark>
<name>DIRECT-75-HP DeskJet 4670 series</name>
<description>Name: <b>DIRECT-75-HP DeskJet 4670 series</b><br/>Timestamp (UTC): <b>1512118706000</b><br/>Date: <b>2017-12-01 08:58:26 </b><br/>BSSID: <b>b0:5a:da:fa:44:76</b><br/>Capabilities: <b>[WPA2-PSK-CCMP][WPS][ESS]</b><br/>AccuracyMeters: <b>3</b><br/></description>
<styleUrl>#red</styleUrl>
<TimeStamp><when>2017-12-01T08:58:26Z</when></TimeStamp>
<Point>
<coordinates>34.813083395926654,32.17110086640514,0 </coordinates>
</Point>
</Placemark>
<Placemark>
<name>Partner</name>
<description>Name: <b>Partner</b><br/>Timestamp (UTC): <b>1512118688000</b><br/>Date: <b>2017-12-01 08:58:08 </b><br/>BSSID: <b>42501_13111_7943948</b><br/>Capabilities: <b>UNKNOWN;il</b><br/>AccuracyMeters: <b>4</b><br/></description>
<styleUrl>#green</styleUrl>
<TimeStamp><when>2017-12-01T08:58:08Z</when></TimeStamp>
<Point>
<coordinates>34.81356387819144,32.17042884309843,0 </coordinates>
</Point>
</Placemark>
<Placemark>
<name>Partner</name>
<description>Name: <b>Partner</b><br/>Timestamp (UTC): <b>1512118643000</b><br/>Date: <b>2017-12-01 08:57:23 </b><br/>BSSID: <b>42501_13111_7943940</b><br/>Capabilities: <b>UNKNOWN;il</b><br/>AccuracyMeters: <b>3</b><br/></description>
<styleUrl>#green</styleUrl>
<TimeStamp><when>2017-12-01T08:57:23Z</when></TimeStamp>
<Point>
<coordinates>34.81193255078027,32.16909112707448,0 </coordinates>
</Point>
</Placemark>
<Placemark>
<name>stephane</name>
<description>Name: <b>stephane</b><br/>Timestamp (UTC): <b>1512118253000</b><br/>Date: <b>2017-12-01 08:50:53 </b><br/>BSSID: <b>00:24:2b:cf:13:21</b><br/>Capabilities: <b>[ESS]</b><br/>AccuracyMeters: <b>4</b><br/></description>
<styleUrl>#green</styleUrl>
<TimeStamp><when>2017-12-01T08:50:53Z</when></TimeStamp>
<Point>
<coordinates>34.811098338566204,32.17023774400125,0 </coordinates>
</Point>
</Placemark>
<Placemark>
<name>Beni</name>
<description>Name: <b>Beni</b><br/>Timestamp (UTC): <b>1512118691000</b><br/>Date: <b>2017-12-01 08:58:11 </b><br/>BSSID: <b>c4:12:f5:f4:82:42</b><br/>Capabilities: <b>[WPA2-PSK-CCMP][ESS][BLE]</b><br/>AccuracyMeters: <b>3</b><br/></description>
<styleUrl>#red</styleUrl>
<TimeStamp><when>2017-12-01T08:58:11Z</when></TimeStamp>
<Point>
<coordinates>34.813595071211296,32.17061830172761,0 </coordinates>
</Point>
</Placemark>
<Placemark>
<name>DIR-825-4f83</name>
<description>Name: <b>DIR-825-4f83</b><br/>Timestamp (UTC): <b>1512118871000</b><br/>Date: <b>2017-12-01 09:01:11 </b><br/>BSSID: <b>80:26:89:0d:4f:84</b><br/>Capabilities: <b>[WPA2-PSK-CCMP][WPS][ESS]</b><br/>AccuracyMeters: <b>3</b><br/></description>
<styleUrl>#red</styleUrl>
<TimeStamp><when>2017-12-01T09:01:11Z</when></TimeStamp>
<Point>
<coordinates>34.81314408162315,32.17246213445027,0 </coordinates>
</Point>
</Placemark>